{
  "type": "FeatureCollection",
  "features": [
    {
      "type": "Feature",
      "geometry": {
        "type": "Point",
        "coordinates": [
          121.788106,
          25.13664
        ]
      },
      "properties": {
        "name": "\u57fa\u9686\u65b0\u8c50\u5e97",
        "hours": "05:00\u201304:00",
        "address": "\u57fa\u9686\u5e02\u4e2d\u6b63\u5340\u65b0\u8c50\u8857249\u865f",
        "number": "02-2469-2091"
      }
    },
    {
      "type": "Feature",
      "geometry": {
        "type": "Point",
        "coordinates": [
          121.744749,
          25.131108
        ]
      },
      "properties": {
        "name": "\u57fa\u9686\u4fe1\u4e00\u65d7\u8266\u5c08\u6ac3",
        "hours": "05:00\u201304:00",
        "address": "\u57fa\u9686\u5e02\u4fe1\u7fa9\u5340\u4fe1\u4e00\u8def177\u865f",
        "number": "02-2421-3531"
      }
    },
    {
      "type": "Feature",
      "geometry": {
        "type": "Point",
        "coordinates": [
          121.709959,
          25.142134
        ]
      },
      "properties": {
        "name": "\u57fa\u9686\u5927\u6b66\u5d19\u65d7\u8266\u5c08\u6ac3",
        "hours": "05:00\u201304:00",
        "address": "\u57fa\u9686\u5e02\u5b89\u6a02\u5340\u57fa\u91d1\u4e00\u8def206-1\u865f",
        "number": "02-2431-5206"
      }
    },
    {
      "type": "Feature",
      "geometry": {
        "type": "Point",
        "coordinates": [
          121.549149,
          25.082813
        ]
      },
      "properties": {
        "name": "\u53f0\u5317\u5317\u5b89\u65d7\u8266\u5c08\u6ac3",
        "hours": "05:00\u201304:00",
        "address": "\u53f0\u5317\u5e02\u4e2d\u5c71\u5340\u5317\u5b89\u8def626\u865f1\u6a13",
        "number": "02-2533-6263"
      }
    },
    {
      "type": "Feature",
      "geometry": {
        "type": "Point",
        "coordinates": [
          121.525537,
          25.052037
        ]
      },
      "properties": {
        "name": "\u6797\u68ee\u4e00\u5e97",
        "hours": "06:00\u201303:00",
        "address": "\u53f0\u5317\u5e02\u4e2d\u5c71\u5340\u5357\u4eac\u6771\u8def1\u6bb586\u865f",
        "number": "02-2537-4880"
      }
    },
    {
      "type": "Feature",
      "geometry": {
        "type": "Point",
        "coordinates": [
          121.525494,
          25.05194
        ]
      },
      "properties": {
        "name": "\u53f0\u5317\u5357\u4eac\u4e94\u5e97",
        "hours": "06:00\u201300:00",
        "address": "\u53f0\u5317\u5e02\u4e2d\u5c71\u5340\u5357\u4eac\u6771\u8def\u4e09\u6bb5210\u4e4b1\u865f",
        "number": "02-2751-5390"
      }
    },
    {
      "type": "Feature",
      "geometry": {
        "type": "Point",
        "coordinates": [
          121.520681,
          25.05231
        ]
      },
      "properties": {
        "name": "\u5357\u897f\u8aa0\u54c1\u65d7\u8266\u5c08\u6ac3",
        "hours": "\u5e73\u65e507:00\u201322:00\u3001\u5047\u65e507:00\u201322:30",
        "address": "\u53f0\u5317\u5e02\u4e2d\u5c71\u5340\u5357\u4eac\u897f\u8def14\u865f",
        "number": "\u7121\u96fb\u8a71"
      }
    },
    {
      "type": "Feature",
      "geometry": {
        "type": "Point",
        "coordinates": [
          121.525805,
          25.059971
        ]
      },
      "properties": {
        "name": "\u6797\u68ee\u4e09\u5e97",
        "hours": "05:00\u201304:00",
        "address": "\u53f0\u5317\u5e02\u4e2d\u5c71\u5340\u6797\u68ee\u5317\u8def413\u865f1\u6a13",
        "number": "02-2567-7038"
      }
    },
    {
      "type": "Feature",
      "geometry": {
        "type": "Point",
        "coordinates": [
          121.530467,
          25.062864
        ]
      },
      "properties": {
        "name": "\u53f0\u5317\u6c11\u6b0a\u4e8c\u5e97",
        "hours": "05:00\u201304:00",
        "address": "\u53f0\u5317\u5e02\u4e2d\u5c71\u5340\u6c11\u6b0a\u6771\u8def2\u6bb543\u865f1\u6a13",
        "number": "02-2591-0105"
      }
    },
    {
      "type": "Feature",
      "geometry": {
        "type": "Point",
        "coordinates": [
          121.519963,
          25.062768
        ]
      },
      "properties": {
        "name": "\u6c11\u6b0a\u4e09\u5e97",
        "hours": "06:00\u201300:00",
        "address": "\u53f0\u5317\u5e02\u4e2d\u5c71\u5340\u6c11\u6b0a\u897f\u8def68\u865f1\u6a13",
        "number": "02-2511-5655"
      }
    },
    {
      "type": "Feature",
      "geometry": {
        "type": "Point",
        "coordinates": [
          121.533862,
          25.054752
        ]
      },
      "properties": {
        "name": "\u9577\u6625\u65d7\u8266\u5c08\u6ac3",
        "hours": "06:00\u201300:00",
        "address": "\u53f0\u5317\u5e02\u4e2d\u5c71\u5340\u9577\u6625\u8def172\u865f",
        "number": "02-2504-2797"
      }
    },
    {
      "type": "Feature",
      "geometry": {
        "type": "Point",
        "coordinates": [
          121.516738,
          25.044664
        ]
      },
      "properties": {
        "name": "\u53f0\u5317\u516c\u5712\u5e97",
        "hours": "06:00\u201300:00",
        "address": "\u53f0\u5317\u5e02\u4e2d\u6b63\u5340\u516c\u5712\u8def30-1\u865f",
        "number": "02-2375-4891"
      }
    },
    {
      "type": "Feature",
      "geometry": {
        "type": "Point",
        "coordinates": [
          121.517079,
          25.047904
        ]
      },
      "properties": {
        "name": "\u53f0\u5317\u8eca\u7ad9\u5fae\u98a8\u5e97",
        "hours": "06:00\u201322:00",
        "address": "\u53f0\u5317\u5e02\u4e2d\u6b63\u5340\u5317\u5e73\u897f\u8def3\u865f1\u6a13",
        "number": "02-2311-6665"
      }
    },
    {
      "type": "Feature",
      "geometry": {
        "type": "Point",
        "coordinates": [
          121.518634,
          25.029572
        ]
      },
      "properties": {
        "name": "\u53f0\u5317\u5357\u660c\u5e97",
        "hours": "06:00\u201323:00",
        "address": "\u53f0\u5317\u5e02\u4e2d\u6b63\u5340\u5357\u660c\u8def1\u6bb5149\u865f1\u6a13",
        "number": "02-2351-8531"
      }
    },
    {
      "type": "Feature",
      "geometry": {
        "type": "Point",
        "coordinates": [
          121.523395,
          25.044612
        ]
      },
      "properties": {
        "name": "\u6797\u68ee\u4e8c\u65d7\u8266\u5c08\u6ac3",
        "hours": "06:00\u201300:00",
        "address": "\u53f0\u5317\u5e02\u4e2d\u6b63\u5340\u6797\u68ee\u5357\u8def1\u865f",
        "number": "02-2391-1196"
      }
    },
    {
      "type": "Feature",
      "geometry": {
        "type": "Point",
        "coordinates": [
          121.532567,
          25.040249
        ]
      },
      "properties": {
        "name": "\u53f0\u5317\u6fdf\u5357\u5e97",
        "hours": "06:00\u201300:00",
        "address": "\u53f0\u5317\u5e02\u4e2d\u6b63\u5340\u6fdf\u5357\u8def2\u6bb566\u865f1\u6a13",
        "number": "02-2395-8275"
      }
    },
    {
      "type": "Feature",
      "geometry": {
        "type": "Point",
        "coordinates": [
          121.534608,
          25.014266
        ]
      },
      "properties": {
        "name": "\u53f0\u5317\u516c\u9928\u5e97",
        "hours": "06:00\u201300:00",
        "address": "\u53f0\u5317\u5e02\u4e2d\u6b63\u5340\u7f85\u65af\u798f\u8def\u56db\u6bb576-1\u865f",
        "number": "02-2366-1123"
      }
    },
    {
      "type": "Feature",
      "geometry": {
        "type": "Point",
        "coordinates": [
          121.515003,
          25.046093
        ]
      },
      "properties": {
        "name": "\u53f0\u5317\u9928\u524d\u5e97",
        "hours": "\u661f\u671f\u4e09~\u65e504:00\u201303:00\n\u661f\u671f\u4e00\n04:00\u201300:00\n\u661f\u671f\u4e8c\n06:00\u201303:00",
        "address": "\u53f0\u5317\u5e02\u4e2d\u6b63\u5340\u9928\u524d\u8def8\u865f",
        "number": "02-2311-1460"
      }
    },
    {
      "type": "Feature",
      "geometry": {
        "type": "Point",
        "coordinates": [
          121.564274,
          25.034283
        ]
      },
      "properties": {
        "name": "\u53f0\u5317\u65b0101\u5e97",
        "hours": "\u661f\u671f\u4e94\u3001\u516d\r\n08:00\u201322:00\r\n\u661f\u671f\u65e5~\u56db\r\n08:00\u201321:30",
        "address": "\u53f0\u5317\u5e02\u4fe1\u7fa9\u5340\u5e02\u5e9c\u8def45\u865fB1",
        "number": "02-8101-7708"
      }
    },
    {
      "type": "Feature",
      "geometry": {
        "type": "Point",
        "coordinates": [
          121.579241,
          25.041432
        ]
      },
      "properties": {
        "name": "\u5fe0\u5b5d\u56db\u5e97",
        "hours": "05:00\u201300:00",
        "address": "\u53f0\u5317\u5e02\u4fe1\u7fa9\u5340\u5fe0\u5b5d\u6771\u8def5\u6bb5522\u865f1\u6a13",
        "number": "02-2759-5793"
      }
    },
    {
      "type": "Feature",
      "geometry": {
        "type": "Point",
        "coordinates": [
          121.579197,
          25.049413
        ]
      },
      "properties": {
        "name": "\u677e\u5c71\u8eca\u7ad9\u5e97",
        "hours": "06:00\u201300:00",
        "address": "\u53f0\u5317\u5e02\u4fe1\u7fa9\u5340\u677e\u5c71\u8def11\u865f\u4e00\u6a13\u5546\u5834",
        "number": "02-2742-0575"
      }
    },
    {
      "type": "Feature",
      "geometry": {
        "type": "Point",
        "coordinates": [
          121.566729,
          25.038184
        ]
      },
      "properties": {
        "name": "\u65b0\u5149\u4fe1\u7fa9\u5e97",
        "hours": "\u661f\u671f\u4e94\u3001\u516d\n11:00\u201322:00\n\u661f\u671f\u65e5~\u56db\n11:00\u201321:30",
        "address": "\u53f0\u5317\u5e02\u4fe1\u7fa9\u5340\u677e\u9ad8\u8def12\u865fB2",
        "number": "02-8789-6315"
      }
    },
    {
      "type": "Feature",
      "geometry": {
        "type": "Point",
        "coordinates": [
          121.568664,
          25.026992
        ]
      },
      "properties": {
        "name": "\u53f0\u5317\u838a\u656c\u65d7\u8266\u5c08\u6ac3",
        "hours": "05:00\u201304:00",
        "address": "\u53f0\u5317\u5e02\u4fe1\u7fa9\u5340\u838a\u656c\u8def475\u865f1\u6a13",
        "number": "02-8780-0218"
      }
    },
    {
      "type": "Feature",
      "geometry": {
        "type": "Point",
        "coordinates": [
          121.579416,
          25.081006
        ]
      },
      "properties": {
        "name": "\u53f0\u5317\u5167\u6e56\u5e97",
        "hours": "04:00\u201303:00",
        "address": "\u53f0\u5317\u5e02\u5167\u6e56\u5340\u5167\u6e56\u8def1\u6bb5741\u865f1\u6a13",
        "number": "02-2658-1021"
      }
    },
    {
      "type": "Feature",
      "geometry": {
        "type": "Point",
        "coordinates": [
          121.566247,
          25.082505
        ]
      },
      "properties": {
        "name": "\u53f0\u5317\u897f\u6e56\u65d7\u8266\u5c08\u6ac3",
        "hours": "\u661f\u671f\u56db~\u4e00\n05:00\u201304:00\n\u661f\u671f\u4e8c\n05:00\u201300:00\n\u661f\u671f\u4e09\n06:00\u201304:00",
        "address": "\u53f0\u5317\u5e02\u5167\u6e56\u5340\u5167\u6e56\u8def\u4e00\u6bb5283\u865f1\u6a13",
        "number": "02-8751-3326"
      }
    },
    {
      "type": "Feature",
      "geometry": {
        "type": "Point",
        "coordinates": [
          121.569443,
          25.079226
        ]
      },
      "properties": {
        "name": "\u53f0\u5317\u745e\u5149\u5e97",
        "hours": "\u5e73\u65e507:00\u201321:00\u3001\u5047\u65e507:00\u201320:00",
        "address": "\u53f0\u5317\u5e02\u5167\u6e56\u5340\u745e\u5149\u8def517\u865f1\u6a13",
        "number": "02-8751-5597"
      }
    },
    {
      "type": "Feature",
      "geometry": {
        "type": "Point",
        "coordinates": [
          121.579347,
          25.060811
        ]
      },
      "properties": {
        "name": "\u53f0\u5317\u820a\u5b97\u9910\u5ef3",
        "hours": "06:00\u201300:00",
        "address": "\u53f0\u5317\u5e02\u5167\u6e56\u5340\u820a\u5b97\u8def\u4e00\u6bb5135\u865f",
        "number": "02-2796-0708"
      }
    },
    {
      "type": "Feature",
      "geometry": {
        "type": "Point",
        "coordinates": [
          121.578134,
          25.063154
        ]
      },
      "properties": {
        "name": "\u53f0\u5317\u820a\u5b97\u4e8c\u9910\u5ef3",
        "hours": "06:00\u201300:00",
        "address": "\u53f0\u5317\u5e02\u5167\u6e56\u5340\u820a\u5b97\u8def\u4e00\u6bb5275\u865f",
        "number": "02-2795-2298"
      }
    },
    {
      "type": "Feature",
      "geometry": {
        "type": "Point",
        "coordinates": [
          121.594606,
          25.084626
        ]
      },
      "properties": {
        "name": "\u5167\u6e56\u91d1\u9f8d\u65d7\u8266\u5c08\u6ac3",
        "hours": "06:00\u201300:00",
        "address": "\u53f0\u5317\u5e02\u5167\u6e56\u5340\u91d1\u9f8d\u8def22\u865f",
        "number": "\u7121\u96fb\u8a71"
      }
    },
    {
      "type": "Feature",
      "geometry": {
        "type": "Point",
        "coordinates": [
          121.467811,
          25.128284
        ]
      },
      "properties": {
        "name": "\u53f0\u5317\u4e2d\u592e\u5e97",
        "hours": "\u661f\u671f\u4e09~\u4e00\n05:00\u201304:00\n\u661f\u671f\u4e8c\n06:00\u201300:00",
        "address": "\u53f0\u5317\u5e02\u5317\u6295\u5340\u4e2d\u592e\u5317\u8def\u56db\u6bb5534\u865f1\u6a13",
        "number": "02-2895-2638"
      }
    },
    {
      "type": "Feature",
      "geometry": {
        "type": "Point",
        "coordinates": [
          121.504388,
          25.13635
        ]
      },
      "properties": {
        "name": "\u53f0\u5317\u5317\u6295\u5e97",
        "hours": "05:00\u201304:00",
        "address": "\u53f0\u5317\u5e02\u5317\u6295\u5340\u5149\u660e\u8def218-3\u865f",
        "number": "02-2891-3389"
      }
    },
    {
      "type": "Feature",
      "geometry": {
        "type": "Point",
        "coordinates": [
          121.498626,
          25.131323
        ]
      },
      "properties": {
        "name": "\u53f0\u5317\u5927\u696d\u65d7\u8266\u5c08\u6ac3",
        "hours": "06:00\u201300:00",
        "address": "\u53f0\u5317\u5e02\u5317\u6295\u5340\u5317\u6295\u8def2\u6bb515\u865f",
        "number": "02-2897-0316"
      }
    },
    {
      "type": "Feature",
      "geometry": {
        "type": "Point",
        "coordinates": [
          121.50615,
          25.116155
        ]
      },
      "properties": {
        "name": "\u53f0\u5317\u627f\u5fb7\u4e8c\u65d7\u8266\u5c08\u6ac3",
        "hours": "05:00\u201304:00",
        "address": "\u53f0\u5317\u5e02\u5317\u6295\u5340\u627f\u5fb7\u8def7\u6bb5262\u865f1\u6a13",
        "number": "02-2821-0533"
      }
    },
    {
      "type": "Feature",
      "geometry": {
        "type": "Point",
        "coordinates": [
          121.517575,
          25.118073
        ]
      },
      "properties": {
        "name": "\u53f0\u5317\u77f3\u724c\u5e97",
        "hours": "06:00\u201300:00",
        "address": "\u53f0\u5317\u5e02\u5317\u6295\u5340\u77f3\u724c\u8def2\u6bb5126\u865f",
        "number": "02-2820-1362"
      }
    },
    {
      "type": "Feature",
      "geometry": {
        "type": "Point",
        "coordinates": [
          121.60567,
          25.054602
        ]
      },
      "properties": {
        "name": "\u53f0\u5317\u5357\u6e2f\u5e97",
        "hours": "06:00\u201300:00",
        "address": "\u53f0\u5317\u5e02\u5357\u6e2f\u5340\u5357\u6e2f\u8def2\u6bb516\u865f1\u6a13",
        "number": "02-2789-0595"
      }
    },
    {
      "type": "Feature",
      "geometry": {
        "type": "Point",
        "coordinates": [
          121.593955,
          25.050265
        ]
      },
      "properties": {
        "name": "\u5fe0\u5b5d\u516b\u5e97",
        "hours": "\u661f\u671f\u4e00\n06:00\u201323:30\n\u661f\u671f\u4e8c~\u65e5\r\n06:00\u201301:00",
        "address": "\u53f0\u5317\u5e02\u5357\u6e2f\u5340\u5fe0\u5b5d\u6771\u8def6\u6bb5438\u865f1\u6a13",
        "number": "02-2654-6761"
      }
    },
    {
      "type": "Feature",
      "geometry": {
        "type": "Point",
        "coordinates": [
          121.616539,
          25.052436
        ]
      },
      "properties": {
        "name": "\u53f0\u5317\u7814\u7a76\u9662\u5e97",
        "hours": "06:00\u201300:00",
        "address": "\u53f0\u5317\u5e02\u5357\u6e2f\u5340\u7814\u7a76\u9662\u8def1\u6bb599\u865f",
        "number": "02-2653-6369"
      }
    },
    {
      "type": "Feature",
      "geometry": {
        "type": "Point",
        "coordinates": [
          121.52838,
          25.096177
        ]
      },
      "properties": {
        "name": "\u58eb\u6797\u65d7\u8266\u5c08\u6ac3",
        "hours": "05:00\u201304:00",
        "address": "\u53f0\u5317\u5e02\u58eb\u6797\u5340\u4e2d\u5c71\u5317\u8def5\u6bb5602\u865f",
        "number": "02-2831-3010"
      }
    },
    {
      "type": "Feature",
      "geometry": {
        "type": "Point",
        "coordinates": [
          121.533014,
          25.109562
        ]
      },
      "properties": {
        "name": "\u53f0\u5317\u5fb7\u884c\u5e97",
        "hours": "06:00\u201300:00",
        "address": "\u53f0\u5317\u5e02\u58eb\u6797\u5340\u5fb7\u884c\u6771\u8def227\u865f1\u6a13",
        "number": "02-2836-2779"
      }
    },
    {
      "type": "Feature",
      "geometry": {
        "type": "Point",
        "coordinates": [
          121.546674,
          25.137789
        ]
      },
      "properties": {
        "name": "\u967d\u660e\u5c71\u5e97",
        "hours": "05:00\u201304:00",
        "address": "\u53f0\u5317\u5e02\u58eb\u6797\u5340\u683c\u81f4\u8def62\u865f",
        "number": "02-2861-7252"
      }
    },
    {
      "type": "Feature",
      "geometry": {
        "type": "Point",
        "coordinates": [
          121.547019,
          25.094191
        ]
      },
      "properties": {
        "name": "\u53f0\u5317\u6771\u5433\u5e97",
        "hours": "\u661f\u671f\u65e5\r\n11:00\u201320:00\r\n\u661f\u671f\u4e00~\u516d\r\n07:00\u201322:00",
        "address": "\u53f0\u5317\u5e02\u58eb\u6797\u5340\u81e8\u6eaa\u8def70\u865f1\u6a13(\u6771\u5433\u5927\u5b78\u5167\u7d9c\u5408\u5927\u6a13)",
        "number": "02-2880-3105"
      }
    },
    {
      "type": "Feature",
      "geometry": {
        "type": "Point",
        "coordinates": [
          121.512336,
          25.082664
        ]
      },
      "properties": {
        "name": "\u91cd\u5317\u4e00\u5e97",
        "hours": "05:00\u201304:00",
        "address": "\u53f0\u5317\u5e02\u58eb\u6797\u5340\u91cd\u6176\u5317\u8def4\u6bb5123\u865f",
        "number": "02-2816-2230"
      }
    },
    {
      "type": "Feature",
      "geometry": {
        "type": "Point",
        "coordinates": [
          121.517399,
          25.052794
        ]
      },
      "properties": {
        "name": "\u53f0\u5317\u627f\u5fb7\u5e97",
        "hours": "05:00\u201304:00",
        "address": "\u53f0\u5317\u5e02\u5927\u540c\u5340\u627f\u5fb7\u8def1\u6bb534\u865f1\u6a13",
        "number": "02-2556-3502"
      }
    },
    {
      "type": "Feature",
      "geometry": {
        "type": "Point",
        "coordinates": [
          121.520359,
          25.057922
        ]
      },
      "properties": {
        "name": "\u6c11\u751f\u4e09\u5e97",
        "hours": "06:00\u201300:00",
        "address": "\u53f0\u5317\u5e02\u5927\u540c\u5340\u6c11\u751f\u897f\u8def55\u865f",
        "number": "02-2557-4627"
      }
    },
    {
      "type": "Feature",
      "geometry": {
        "type": "Point",
        "coordinates": [
          121.554567,
          25.033418
        ]
      },
      "properties": {
        "name": "\u53f0\u5317\u4fe1\u7fa9\u5e97",
        "hours": "06:00\u201300:00",
        "address": "\u53f0\u5317\u5e02\u5927\u5b89\u5340\u4fe1\u7fa9\u8def4\u6bb5273\u865f1\u6a13",
        "number": "02-2703-8921"
      }
    },
    {
      "type": "Feature",
      "geometry": {
        "type": "Point",
        "coordinates": [
          121.557548,
          25.039623
        ]
      },
      "properties": {
        "name": "\u53f0\u5317\u5149\u5fa9\u5e97",
        "hours": "04:00\u201303:00",
        "address": "\u53f0\u5317\u5e02\u5927\u5b89\u5340\u5149\u5fa9\u5357\u8def286\u865f",
        "number": "02-2741-5210"
      }
    },
    {
      "type": "Feature",
      "geometry": {
        "type": "Point",
        "coordinates": [
          121.557887,
          25.018475
        ]
      },
      "properties": {
        "name": "\u53f0\u5317\u9e9f\u5149\u5e97",
        "hours": "06:00\u201300:00",
        "address": "\u53f0\u5317\u5e02\u5927\u5b89\u5340\u548c\u5e73\u6771\u8def3\u6bb5406\u5df78\u865f1\u6a13",
        "number": "02-2377-1063"
      }
    },
    {
      "type": "Feature",
      "geometry": {
        "type": "Point",
        "coordinates": [
          121.540257,
          25.05145
        ]
      },
      "properties": {
        "name": "\u5fa9\u8208\u4e8c\u5e97",
        "hours": "05:00\u201303:30",
        "address": "\u53f0\u5317\u5e02\u5927\u5b89\u5340\u5fa9\u8208\u5357\u8def\u4e8c\u6bb5273\u865f",
        "number": "02-2754-7577"
      }
    },
    {
      "type": "Feature",
      "geometry": {
        "type": "Point",
        "coordinates": [
          121.54703,
          25.042074
        ]
      },
      "properties": {
        "name": "\u5fe0\u5b5d\u4e94\u5e97",
        "hours": "04:00\u201303:00",
        "address": "\u53f0\u5317\u5e02\u5927\u5b89\u5340\u5fe0\u5b5d\u6771\u8def4\u6bb573\u865f\u4e4b\u4e001\u6a13",
        "number": "02-2772-6530"
      }
    },
    {
      "type": "Feature",
      "geometry": {
        "type": "Point",
        "coordinates": [
          121.533387,
          25.018336
        ]
      },
      "properties": {
        "name": "\u53f0\u5317\u65b0\u751f\u65d7\u8266\u5c08\u6ac3",
        "hours": "05:00\u201304:00",
        "address": "\u53f0\u5317\u5e02\u5927\u5b89\u5340\u65b0\u751f\u5357\u8def3\u6bb588\u4e4b2\u865f",
        "number": "02-2362-0668"
      }
    },
    {
      "type": "Feature",
      "geometry": {
        "type": "Point",
        "coordinates": [
          121.52235,
          25.02771
        ]
      },
      "properties": {
        "name": "\u7f85\u65af\u798f\u5e97",
        "hours": "\u661f\u671f\u4e8c\n06:00\u201303:00\n\u661f\u671f\u4e09\n06:00\u201300:00\n\u661f\u671f\u56db\n06:00\u201303:00\n\u661f\u671f\u4e94~\u4e00\n05:00\u201303:00",
        "address": "\u53f0\u5317\u5e02\u5927\u5b89\u5340\u7f85\u65af\u798f\u8def2\u6bb545\u865f",
        "number": "02-2393-0023"
      }
    },
    {
      "type": "Feature",
      "geometry": {
        "type": "Point",
        "coordinates": [
          121.540098,
          25.018416
        ]
      },
      "properties": {
        "name": "\u53f0\u5317\u53f0\u5927\u5e97",
        "hours": "07:00\u201322:00",
        "address": "\u53f0\u5317\u5e02\u5927\u5b89\u5340\u7f85\u65af\u798f\u8def\u56db\u6bb51\u865f1\u6a13\u4e4b\u53f0\u7063\u5927\u5b78\u7b2c\u4e00\u5b78\u751f\u6d3b\u52d5\u4e2d\u5fc3\u8ce3\u5834",
        "number": "02-2362-1290"
      }
    },
    {
      "type": "Feature",
      "geometry": {
        "type": "Point",
        "coordinates": [
          121.574805,
          24.988017
        ]
      },
      "properties": {
        "name": "\u53f0\u5317\u6307\u5357\u5e97",
        "hours": "06:00\u201300:00",
        "address": "\u53f0\u5317\u5e02\u6587\u5c71\u5340\u6307\u5357\u8def2\u6bb567\u865f1\u6a13",
        "number": "02-8661-7768"
      }
    },
    {
      "type": "Feature",
      "geometry": {
        "type": "Point",
        "coordinates": [
          121.542526,
          24.992255
        ]
      },
      "properties": {
        "name": "\u666f\u7f8e\u5e97",
        "hours": "04:30\u201303:30",
        "address": "\u53f0\u5317\u5e02\u6587\u5c71\u5340\u666f\u4e2d\u885730\u5df712\u865f",
        "number": "02-2933-3341"
      }
    },
    {
      "type": "Feature",
      "geometry": {
        "type": "Point",
        "coordinates": [
          121.560923,
          24.981951
        ]
      },
      "properties": {
        "name": "\u53f0\u5317\u6728\u65b0\u5e97",
        "hours": "\u661f\u671f\u56db~\u4e8c\r\n04:00\u201303:00\r\n\u661f\u671f\u4e09\r\n06:00\u201300:00",
        "address": "\u53f0\u5317\u5e02\u6587\u5c71\u5340\u6728\u65b0\u8def3\u6bb5174\u865f1\u6a13",
        "number": "02-2937-0095"
      }
    },
    {
      "type": "Feature",
      "geometry": {
        "type": "Point",
        "coordinates": [
          121.550141,
          24.9878
        ]
      },
      "properties": {
        "name": "\u53f0\u5317\u8003\u8a66\u9662\u5e97",
        "hours": "      06:00\u201323:00",
        "address": "\u53f0\u5317\u5e02\u6587\u5c71\u5340\u6728\u67f5\u8def1\u6bb5137\u865f",
        "number": "02-2236-2598"
      }
    },
    {
      "type": "Feature",
      "geometry": {
        "type": "Point",
        "coordinates": [
          121.566438,
          24.989705
        ]
      },
      "properties": {
        "name": "\u53f0\u5317\u6728\u67f5\u5e97",
        "hours": "06:00\u201300:00",
        "address": "\u53f0\u5317\u5e02\u6587\u5c71\u5340\u6728\u67f5\u8def3\u6bb557\u865f1\u6a13",
        "number": "02-2939-4168"
      }
    },
    {
      "type": "Feature",
      "geometry": {
        "type": "Point",
        "coordinates": [
          121.555799,
          25.000358
        ]
      },
      "properties": {
        "name": "\u53f0\u5317\u8208\u9686\u5e97",
        "hours": "\u661f\u671f\u4e00\r\n06:00\u201300:00\r\n\u661f\u671f\u4e8c~\u65e5\r\n24 \u5c0f\u6642\u71df\u696d",
        "address": "\u53f0\u5317\u5e02\u6587\u5c71\u5340\u8208\u9686\u8def3\u6bb554\u865f",
        "number": "02-2933-6260"
      }
    },
    {
      "type": "Feature",
      "geometry": {
        "type": "Point",
        "coordinates": [
          121.579637,
          25.049452
        ]
      },
      "properties": {
        "name": "\u677e\u5c71\u8eca\u7ad9\u5e97",
        "hours": "06:00\u201300:00",
        "address": "\u53f0\u5317\u5e02\u677e\u5c71\u5340\u4fe1\u7fa9\u5340\u677e\u5c71\u8def11\u865f\u4e00\u6a13\u5546\u5834",
        "number": "02-2742-0575"
      }
    },
    {
      "type": "Feature",
      "geometry": {
        "type": "Point",
        "coordinates": [
          121.56313,
          25.051752
        ]
      },
      "properties": {
        "name": "\u53f0\u5317\u5357\u4eac\u5f71\u57ce\u5e97",
        "hours": "\u661f\u671f\u4e8c\r\n05:00\u201300:00\r\n\u661f\u671f\u4e09~\u4e00\r\n05:00\u201304:00",
        "address": "\u53f0\u5317\u5e02\u677e\u5c71\u5340\u5357\u4eac\u6771\u8def5\u6bb5162\u865f1\u6a13",
        "number": "02-2768-9449"
      }
    },
    {
      "type": "Feature",
      "geometry": {
        "type": "Point",
        "coordinates": [
          121.546641,
          25.061944
        ]
      },
      "properties": {
        "name": "\u6c11\u6b0a\u4e00\u5e97",
        "hours": "\u661f\u671f\u4e00~\u4e8c\n05:00\u201300:00\n\u661f\u671f\u4e09~\u65e5\n05:00\u201304:00",
        "address": "\u53f0\u5317\u5e02\u677e\u5c71\u5340\u6c11\u6b0a\u6771\u8def3\u6bb5128\u865f1\u6a13",
        "number": "02-2717-7152"
      }
    },
    {
      "type": "Feature",
      "geometry": {
        "type": "Point",
        "coordinates": [
          121.548689,
          25.059881
        ]
      },
      "properties": {
        "name": "\u53f0\u5317\u6c11\u751f\u5e97",
        "hours": "06:00\u201300:00",
        "address": "\u53f0\u5317\u5e02\u677e\u5c71\u5340\u6c11\u751f\u6771\u8def3\u6bb5135\u865f",
        "number": "02-2713-0715"
      }
    },
    {
      "type": "Feature",
      "geometry": {
        "type": "Point",
        "coordinates": [
          121.566098,
          25.059073
        ]
      },
      "properties": {
        "name": "\u53f0\u5317\u6c11\u751f\u4e8c\u5e97",
        "hours": "06:00\u201300:00",
        "address": "\u53f0\u5317\u5e02\u677e\u5c71\u5340\u6c11\u751f\u6771\u8def5\u6bb5234\u865f1\u6a13",
        "number": "02-2747-1086"
      }
    },
    {
      "type": "Feature",
      "geometry": {
        "type": "Point",
        "coordinates": [
          121.505236,
          25.044978
        ]
      },
      "properties": {
        "name": "\u6606\u660e\u65d7\u8266\u5c08\u6ac3",
        "hours": "04:00\u201303:00",
        "address": "\u53f0\u5317\u5e02\u842c\u83ef\u5340\u6606\u660e\u885792\u4e4b4\u865f",
        "number": "02-2314-6526"
      }
    },
    {
      "type": "Feature",
      "geometry": {
        "type": "Point",
        "coordinates": [
          121.505778,
          25.038007
        ]
      },
      "properties": {
        "name": "\u53f0\u5317\u6842\u6797\u5bb6\u6a02\u798f\u5e97",
        "hours": "05:00\u201304:00",
        "address": "\u53f0\u5317\u5e02\u842c\u83ef\u5340\u6842\u6797\u8def1\u865f",
        "number": "02-2311-9176"
      }
    },
    {
      "type": "Feature",
      "geometry": {
        "type": "Point",
        "coordinates": [
          121.500616,
          25.027033
        ]
      },
      "properties": {
        "name": "\u53f0\u5317\u842c\u5927\u4e8c\u65d7\u8266\u5c08\u6ac3",
        "hours": "05:00\u201304:00",
        "address": "\u53f0\u5317\u5e02\u842c\u83ef\u5340\u842c\u5927\u8def215\u865f",
        "number": "02-2301-1161"
      }
    },
    {
      "type": "Feature",
      "geometry": {
        "type": "Point",
        "coordinates": [
          121.495055,
          25.028388
        ]
      },
      "properties": {
        "name": "\u53f0\u5317\u897f\u5712\u4e8c\u5e97",
        "hours": "04:00\u201303:00",
        "address": "\u53f0\u5317\u5e02\u842c\u83ef\u5340\u897f\u5712\u8def2\u6bb5240\u865f",
        "number": "02-2332-5640"
      }
    },
    {
      "type": "Feature",
      "geometry": {
        "type": "Point",
        "coordinates": [
          121.376028,
          24.942338
        ]
      },
      "properties": {
        "name": "\u4e09\u5cfd\u5b78\u6210\u65d7\u8266\u5c08\u6ac3",
        "hours": "05:00\u201304:00",
        "address": "\u65b0\u5317\u5e02\u4e09\u5cfd\u5340\u5b78\u6210\u8def258\u865f",
        "number": "02-2672-8230"
      }
    },
    {
      "type": "Feature",
      "geometry": {
        "type": "Point",
        "coordinates": [
          121.372229,
          24.936474
        ]
      },
      "properties": {
        "name": "\u4e09\u5cfd\u6587\u5316\u5e97",
        "hours": "05:00\u201304:00",
        "address": "\u65b0\u5317\u5e02\u4e09\u5cfd\u5340\u6587\u5316\u8def72\u865f1\u6a13",
        "number": "02-2673-1770"
      }
    },
    {
      "type": "Feature",
      "geometry": {
        "type": "Point",
        "coordinates": [
          121.481803,
          25.079268
        ]
      },
      "properties": {
        "name": "\u4e09\u91cd\u4e09\u548c\u65d7\u8266\u5c08\u6ac3",
        "hours": "\u661f\u671f\u56db~\u4e8c\r\n04:00\u201303:00\r\n\u661f\u671f\u4e09\r\n05:00\u201303:00",
        "address": "\u65b0\u5317\u5e02\u4e09\u91cd\u5340\u4e09\u548c\u8def\u56db\u6bb5392-1\u865f",
        "number": "02-2280-6398"
      }
    },
    {
      "type": "Feature",
      "geometry": {
        "type": "Point",
        "coordinates": [
          121.476442,
          25.071543
        ]
      },
      "properties": {
        "name": "\u4e09\u91cd\u611b\u8cb7\u5e97",
        "hours": "07:00\u201321:00",
        "address": "\u65b0\u5317\u5e02\u4e09\u91cd\u5340\u4e2d\u6b63\u5317\u8def193\u5df745\u865f1F",
        "number": "02-2971-1516"
      }
    },
    {
      "type": "Feature",
      "geometry": {
        "type": "Point",
        "coordinates": [
          121.492981,
          25.083574
        ]
      },
      "properties": {
        "name": "\u4e09\u91cd\u4e94\u83ef\u5e97",
        "hours": "04:00\u201303:00",
        "address": "\u65b0\u5317\u5e02\u4e09\u91cd\u5340\u4e94\u83ef\u885789-1\u865f1\u6a13",
        "number": "02-2986-6855"
      }
    },
    {
      "type": "Feature",
      "geometry": {
        "type": "Point",
        "coordinates": [
          121.497691,
          25.063229
        ]
      },
      "properties": {
        "name": "\u4e09\u91cd\u6b63\u7fa9\u5e97",
        "hours": "05:00\u201304:00",
        "address": "\u65b0\u5317\u5e02\u4e09\u91cd\u5340\u6b63\u7fa9\u5317\u8def15\u865f",
        "number": "02-2986-7525"
      }
    },
    {
      "type": "Feature",
      "geometry": {
        "type": "Point",
        "coordinates": [
          121.496349,
          25.06666
        ]
      },
      "properties": {
        "name": "\u4e09\u91cd\u6b63\u7fa9\u4e8c\u5e97",
        "hours": "05:00\u201304:00",
        "address": "\u65b0\u5317\u5e02\u4e09\u91cd\u5340\u6b63\u7fa9\u5317\u8def176\u865f1\u6a13",
        "number": "02-2984-0098"
      }
    },
    {
      "type": "Feature",
      "geometry": {
        "type": "Point",
        "coordinates": [
          121.486931,
          25.057724
        ]
      },
      "properties": {
        "name": "\u4e09\u91cd\u91cd\u967d\u65d7\u8266\u5c08\u6ac3",
        "hours": "05:00\u201304:00",
        "address": "\u65b0\u5317\u5e02\u4e09\u91cd\u5340\u91cd\u967d\u8def\u4e00\u6bb55\u865f",
        "number": "\u7121\u96fb\u8a71"
      }
    },
    {
      "type": "Feature",
      "geometry": {
        "type": "Point",
        "coordinates": [
          121.496069,
          25.072553
        ]
      },
      "properties": {
        "name": "\u4e09\u91cd\u9f8d\u9580\u5e97",
        "hours": "06:00\u201300:00",
        "address": "\u65b0\u5317\u5e02\u4e09\u91cd\u5340\u9f8d\u9580\u8def42\u865f",
        "number": "02-2976-3181"
      }
    },
    {
      "type": "Feature",
      "geometry": {
        "type": "Point",
        "coordinates": [
          121.500017,
          25.001597
        ]
      },
      "properties": {
        "name": "\u4e2d\u548c\u5e97",
        "hours": "05:00\u201304:00",
        "address": "\u65b0\u5317\u5e02\u4e2d\u548c\u5340\u4e2d\u548c\u8def38\u865f",
        "number": "02-2246-0725"
      }
    },
    {
      "type": "Feature",
      "geometry": {
        "type": "Point",
        "coordinates": [
          121.480521,
          25.00587
        ]
      },
      "properties": {
        "name": "\u4e2d\u548c\u4e2d\u5c71\u5e97",
        "hours": "05:00\u201304:00",
        "address": "\u65b0\u5317\u5e02\u4e2d\u548c\u5340\u4e2d\u5c71\u8def2\u6bb5583\u865f1\u6a13",
        "number": "02-3234-5535"
      }
    },
    {
      "type": "Feature",
      "geometry": {
        "type": "Point",
        "coordinates": [
          121.513171,
          24.988678
        ]
      },
      "properties": {
        "name": "\u4e2d\u548c\u666f\u65b0\u5e97",
        "hours": "06:00\u201300:00",
        "address": "\u65b0\u5317\u5e02\u4e2d\u548c\u5340\u666f\u65b0\u8857430,432\u865f1~2\u6a13",
        "number": "02-2946-0280"
      }
    },
    {
      "type": "Feature",
      "geometry": {
        "type": "Point",
        "coordinates": [
          121.510129,
          24.989098
        ]
      },
      "properties": {
        "name": "\u4e2d\u548c\u8208\u5357\u5e97",
        "hours": "05:00\u201303:30",
        "address": "\u65b0\u5317\u5e02\u4e2d\u548c\u5340\u8208\u5357\u8def1\u6bb583\u865f1\u6a13",
        "number": "02-8668-6975"
      }
    },
    {
      "type": "Feature",
      "geometry": {
        "type": "Point",
        "coordinates": [
          121.439134,
          25.084905
        ]
      },
      "properties": {
        "name": "\u4e94\u80a1\u6210\u6cf0\u5e97",
        "hours": "05:00\u201304:00",
        "address": "\u65b0\u5317\u5e02\u4e94\u80a1\u5340\u6210\u6cf0\u8def2\u6bb5121\u865f1\u6a13",
        "number": "02-8295-3733"
      }
    },
    {
      "type": "Feature",
      "geometry": {
        "type": "Point",
        "coordinates": [
          121.443055,
          24.976606
        ]
      },
      "properties": {
        "name": "\u571f\u57ce\u4e2d\u592e\u5e97",
        "hours": "06:00\u201301:00",
        "address": "\u65b0\u5317\u5e02\u571f\u57ce\u5340\u4e2d\u592e\u8def2\u6bb5159\u865f1\u6a13",
        "number": "02-2263-9674"
      }
    },
    {
      "type": "Feature",
      "geometry": {
        "type": "Point",
        "coordinates": [
          121.452957,
          24.985351
        ]
      },
      "properties": {
        "name": "\u571f\u57ce\u88d5\u6c11\u5e97",
        "hours": "05:00\u201303:00",
        "address": "\u65b0\u5317\u5e02\u571f\u57ce\u5340\u88d5\u6c11\u8def180\u865f",
        "number": "02-2263-5311"
      }
    },
    {
      "type": "Feature",
      "geometry": {
        "type": "Point",
        "coordinates": [
          121.466255,
          24.986835
        ]
      },
      "properties": {
        "name": "\u571f\u57ce\u91d1\u57ce\u5e97",
        "hours": "05:00\u201303:30",
        "address": "\u65b0\u5317\u5e02\u571f\u57ce\u5340\u91d1\u57ce\u8def3\u6bb554\u865f",
        "number": "02-2274-6826"
      }
    },
    {
      "type": "Feature",
      "geometry": {
        "type": "Point",
        "coordinates": [
          121.536018,
          24.975342
        ]
      },
      "properties": {
        "name": "\u65b0\u5e97\u4e2d\u6b63\u4e09",
        "hours": "05:00\u201303:30",
        "address": "\u65b0\u5317\u5e02\u65b0\u5e97\u5340\u4e2d\u6b63\u8def331\u865f",
        "number": "02-2910-3935"
      }
    },
    {
      "type": "Feature",
      "geometry": {
        "type": "Point",
        "coordinates": [
          121.534064,
          24.983105
        ]
      },
      "properties": {
        "name": "\u65b0\u5e97\u4e2d\u6b63\u4e8c",
        "hours": "05:00\u201303:30",
        "address": "\u65b0\u5317\u5e02\u65b0\u5e97\u5340\u4e2d\u6b63\u8def506\u865f1\u6a13",
        "number": "02-2218-3051"
      }
    },
    {
      "type": "Feature",
      "geometry": {
        "type": "Point",
        "coordinates": [
          121.54611,
          24.976808
        ]
      },
      "properties": {
        "name": "\u65b0\u5e97\u5bb6\u6a02\u798f",
        "hours": "08:00\u201322:00",
        "address": "\u65b0\u5317\u5e02\u65b0\u5e97\u5340\u4e2d\u8208\u8def\u4e09\u6bb51\u4e4b4\u865f",
        "number": "02-2910-8930"
      }
    },
    {
      "type": "Feature",
      "geometry": {
        "type": "Point",
        "coordinates": [
          121.543415,
          24.974061
        ]
      },
      "properties": {
        "name": "\u65b0\u5e97\u5317\u65b0\u9910\u5ef3",
        "hours": "05:00\u201303:30",
        "address": "\u65b0\u5317\u5e02\u65b0\u5e97\u5340\u5317\u65b0\u8def2\u6bb5102\u865f",
        "number": "02-2917-0186"
      }
    },
    {
      "type": "Feature",
      "geometry": {
        "type": "Point",
        "coordinates": [
          121.541625,
          24.980669
        ]
      },
      "properties": {
        "name": "\u65b0\u5e97\u5317\u65b0\u4e8c",
        "hours": "05:00\u201304:00",
        "address": "\u65b0\u5317\u5e02\u65b0\u5e97\u5340\u5317\u65b0\u8def3\u6bb551\u865f",
        "number": "02-2910-2062"
      }
    },
    {
      "type": "Feature",
      "geometry": {
        "type": "Point",
        "coordinates": [
          121.512826,
          24.962743
        ]
      },
      "properties": {
        "name": "\u65b0\u5e97\u5b89\u5eb7",
        "hours": "05:00\u201303:30",
        "address": "\u65b0\u5317\u5e02\u65b0\u5e97\u5340\u5b89\u5fb7\u88571\u865f1\u6a13",
        "number": "02-2212-7618"
      }
    },
    {
      "type": "Feature",
      "geometry": {
        "type": "Point",
        "coordinates": [
          121.444967,
          25.053126
        ]
      },
      "properties": {
        "name": "\u65b0\u838a\u4e2d\u5e73\u9910\u5ef3",
        "hours": "05:00\u201304:00",
        "address": "\u65b0\u5317\u5e02\u65b0\u838a\u5340\u4e2d\u5e73\u8def346,348\u865f",
        "number": "02-2279-1722"
      }
    },
    {
      "type": "Feature",
      "geometry": {
        "type": "Point",
        "coordinates": [
          121.448557,
          25.035766
        ]
      },
      "properties": {
        "name": "\u65b0\u838a\u4e2d\u6b63\u5e97",
        "hours": "05:00\u201304:00",
        "address": "\u65b0\u5317\u5e02\u65b0\u838a\u5340\u4e2d\u6b63\u8def232\u865f",
        "number": "02-2276-8295"
      }
    },
    {
      "type": "Feature",
      "geometry": {
        "type": "Point",
        "coordinates": [
          121.431969,
          25.032269
        ]
      },
      "properties": {
        "name": "\u65b0\u838a\u4e2d\u6b63\u4e8c\u9910\u5ef3",
        "hours": "05:00\u201304:00",
        "address": "\u65b0\u5317\u5e02\u65b0\u838a\u5340\u4e2d\u6b63\u8def617-619\u865f",
        "number": "02-2902-2181"
      }
    },
    {
      "type": "Feature",
      "geometry": {
        "type": "Point",
        "coordinates": [
          121.417885,
          25.026646
        ]
      },
      "properties": {
        "name": "\u65b0\u838a\u5bcc\u570b\u5e97",
        "hours": "06:00\u201300:00",
        "address": "\u65b0\u5317\u5e02\u65b0\u838a\u5340\u4e2d\u6b63\u8def877-5\u865f",
        "number": "02-2902-0073"
      }
    },
    {
      "type": "Feature",
      "geometry": {
        "type": "Point",
        "coordinates": [
          121.452695,
          25.045342
        ]
      },
      "properties": {
        "name": "\u65b0\u838a\u4e8c\u5e97",
        "hours": "05:00\u201304:00",
        "address": "\u65b0\u5317\u5e02\u65b0\u838a\u5340\u4e2d\u6e2f\u8def306\u865f",
        "number": "02-2992-0498"
      }
    },
    {
      "type": "Feature",
      "geometry": {
        "type": "Point",
        "coordinates": [
          121.412968,
          25.024698
        ]
      },
      "properties": {
        "name": "\u65b0\u838a\u4e2d\u5c71\u5e97",
        "hours": "05:00\u201304:00",
        "address": "\u65b0\u5317\u5e02\u65b0\u838a\u5340\u65b0\u5317\u5927\u9053\u4e03\u6bb5792\u865f",
        "number": "02-2905-0070"
      }
    },
    {
      "type": "Feature",
      "geometry": {
        "type": "Point",
        "coordinates": [
          121.424946,
          25.023214
        ]
      },
      "properties": {
        "name": "\u65b0\u838a\u4e09\u5e97",
        "hours": "05:00\u201304:00",
        "address": "\u65b0\u5317\u5e02\u65b0\u838a\u5340\u6c11\u5b89\u8def188\u5df75\u865f",
        "number": "02-2207-0065"
      }
    },
    {
      "type": "Feature",
      "geometry": {
        "type": "Point",
        "coordinates": [
          121.464559,
          25.011024
        ]
      },
      "properties": {
        "name": "\u677f\u6a4b\u9060\u767e\u5e97",
        "hours": "11:00\u201322:00",
        "address": "\u65b0\u5317\u5e02\u677f\u6a4b\u5340\u4e2d\u5c71\u8def1\u6bb5152\u865f12\u6a13",
        "number": "02-8952-4029"
      }
    },
    {
      "type": "Feature",
      "geometry": {
        "type": "Point",
        "coordinates": [
          121.478038,
          25.017897
        ]
      },
      "properties": {
        "name": "\u677f\u6a4b\u4e2d\u5c71\u9910\u5ef3",
        "hours": "05:00\u201303:00",
        "address": "\u65b0\u5317\u5e02\u677f\u6a4b\u5340\u4e2d\u5c71\u8def2\u6bb5257\u865f1\u6a13",
        "number": "02-2964-2221"
      }
    },
    {
      "type": "Feature",
      "geometry": {
        "type": "Point",
        "coordinates": [
          121.457665,
          25.009356
        ]
      },
      "properties": {
        "name": "\u677f\u6a4b\u5e9c\u4e2d\u5e97",
        "hours": "05:00\u201303:30",
        "address": "\u65b0\u5317\u5e02\u677f\u6a4b\u5340\u5e9c\u4e2d\u8def69\u865f",
        "number": "02-2271-0296"
      }
    },
    {
      "type": "Feature",
      "geometry": {
        "type": "Point",
        "coordinates": [
          121.470595,
          25.027828
        ]
      },
      "properties": {
        "name": "\u677f\u6a4b\u6587\u5316\u5e97",
        "hours": "05:00\u201303:30",
        "address": "\u65b0\u5317\u5e02\u677f\u6a4b\u5340\u6587\u5316\u8def2\u6bb5173\u865f",
        "number": "02-2250-5065"
      }
    },
    {
      "type": "Feature",
      "geometry": {
        "type": "Point",
        "coordinates": [
          121.466443,
          25.014184
        ]
      },
      "properties": {
        "name": "\u677f\u6a4b\u9060\u767e\u4e8c\u5e97",
        "hours": "11:00\u201322:00",
        "address": "\u65b0\u5317\u5e02\u677f\u6a4b\u5340\u65b0\u7ad9\u8def28\u865f9\u6a13",
        "number": "02-2964-6930"
      }
    },
    {
      "type": "Feature",
      "geometry": {
        "type": "Point",
        "coordinates": [
          121.426445,
          24.984696
        ]
      },
      "properties": {
        "name": "\u677f\u6a4b\u7be4\u884c\u5e97",
        "hours": "06:00\u201301:00",
        "address": "\u65b0\u5317\u5e02\u677f\u6a4b\u5340\u7be4\u884c\u8def\u4e09\u6bb599\u865fB1~2\u6a13",
        "number": "02-2687-8197"
      }
    },
    {
      "type": "Feature",
      "geometry": {
        "type": "Point",
        "coordinates": [
          121.456426,
          25.00186
        ]
      },
      "properties": {
        "name": "\u677f\u6a4b\u611b\u8cb7\u4e8c\u5e97",
        "hours": "08:00\u201321:00",
        "address": "\u65b0\u5317\u5e02\u677f\u6a4b\u5340\u8cb4\u8208\u8def101\u865f1\u6a13",
        "number": "\u7121\u96fb\u8a71"
      }
    },
    {
      "type": "Feature",
      "geometry": {
        "type": "Point",
        "coordinates": [
          121.461166,
          25.008147
        ]
      },
      "properties": {
        "name": "\u677f\u6a4b\u91cd\u6176\u5e97",
        "hours": "05:00\u201303:00",
        "address": "\u65b0\u5317\u5e02\u677f\u6a4b\u5340\u91cd\u6176\u8def23\u865f",
        "number": "02-2961-2624"
      }
    },
    {
      "type": "Feature",
      "geometry": {
        "type": "Point",
        "coordinates": [
          121.461471,
          25.024254
        ]
      },
      "properties": {
        "name": "\u677f\u6a4b\u96e8\u8fb2\u5e97",
        "hours": "05:00\u201303:30",
        "address": "\u65b0\u5317\u5e02\u677f\u6a4b\u5340\u96e8\u8fb2\u8def60\u865f1\u6a13",
        "number": "02-2250-4605"
      }
    },
    {
      "type": "Feature",
      "geometry": {
        "type": "Point",
        "coordinates": [
          121.38638,
          25.079688
        ]
      },
      "properties": {
        "name": "\u6797\u53e3\u4e2d\u5c71\u5e97",
        "hours": "06:00\u201302:00",
        "address": "\u65b0\u5317\u5e02\u6797\u53e3\u5340\u4e2d\u5c71\u8def250\u4e4b1\u865f",
        "number": "02-2601-1477"
      }
    },
    {
      "type": "Feature",
      "geometry": {
        "type": "Point",
        "coordinates": [
          121.369771,
          25.069329
        ]
      },
      "properties": {
        "name": "\u6797\u53e3\u6587\u5316\u65d7\u8266\u5c08\u6ac3",
        "hours": "05:00\u201303:00",
        "address": "\u65b0\u5317\u5e02\u6797\u53e3\u5340\u6587\u5316\u4e00\u8def\u4e00\u6bb533\u865f",
        "number": "02-2608-2906"
      }
    },
    {
      "type": "Feature",
      "geometry": {
        "type": "Point",
        "coordinates": [
          121.423931,
          24.991064
        ]
      },
      "properties": {
        "name": "\u6a39\u6797\u4e2d\u5c71\u5e97",
        "hours": "05:00\u201303:00",
        "address": "\u65b0\u5317\u5e02\u6a39\u6797\u5340\u4e2d\u5c71\u8def1\u6bb5101\u865f",
        "number": "02-2675-6311"
      }
    },
    {
      "type": "Feature",
      "geometry": {
        "type": "Point",
        "coordinates": [
          121.511224,
          25.002632
        ]
      },
      "properties": {
        "name": "\u6c38\u548c\u6c38\u5b89\u5e97",
        "hours": "05:00\u201303:30",
        "address": "\u65b0\u5317\u5e02\u6c38\u548c\u5340\u4e2d\u548c\u8def503\u865f",
        "number": "02-2922-8242"
      }
    },
    {
      "type": "Feature",
      "geometry": {
        "type": "Point",
        "coordinates": [
          121.509536,
          25.008685
        ]
      },
      "properties": {
        "name": "\u6c38\u548c\u4e2d\u5c71\u5e97",
        "hours": "05:00\u201304:00",
        "address": "\u65b0\u5317\u5e02\u6c38\u548c\u5340\u4e2d\u5c71\u8def1\u6bb5214\u865f",
        "number": "02-8660-2800"
      }
    },
    {
      "type": "Feature",
      "geometry": {
        "type": "Point",
        "coordinates": [
          121.516893,
          24.998428
        ]
      },
      "properties": {
        "name": "\u6c38\u548c\u4e2d\u6b63\u5e97",
        "hours": "06:00\u201301:00",
        "address": "\u65b0\u5317\u5e02\u6c38\u548c\u5340\u4e2d\u6b63\u8def244\u865f",
        "number": "02-2945-7965"
      }
    },
    {
      "type": "Feature",
      "geometry": {
        "type": "Point",
        "coordinates": [
          121.525709,
          24.999468
        ]
      },
      "properties": {
        "name": "\u6c38\u548c\u5f97\u548c\u5e97",
        "hours": "05:00\u201303:30",
        "address": "\u65b0\u5317\u5e02\u6c38\u548c\u5340\u5f97\u548c\u8def405\u865f1\u6a13",
        "number": "02-8660-7029"
      }
    },
    {
      "type": "Feature",
      "geometry": {
        "type": "Point",
        "coordinates": [
          121.515678,
          25.013949
        ]
      },
      "properties": {
        "name": "\u6c38\u548c\u65d7\u8266\u5c08\u6ac3",
        "hours": "04:00\u201303:00",
        "address": "\u65b0\u5317\u5e02\u6c38\u548c\u5340\u6c38\u548c\u8def2\u6bb5170\u865f",
        "number": "02-2929-0101"
      }
    },
    {
      "type": "Feature",
      "geometry": {
        "type": "Point",
        "coordinates": [
          121.632732,
          25.065754
        ]
      },
      "properties": {
        "name": "\u6c50\u6b62\u4e2d\u8208\u5e97",
        "hours": "05:00\u201303:30",
        "address": "\u65b0\u5317\u5e02\u6c50\u6b62\u5340\u4e2d\u8208\u8def168\u865f\u4e4b10",
        "number": "02-2694-6602"
      }
    },
    {
      "type": "Feature",
      "geometry": {
        "type": "Point",
        "coordinates": [
          121.65424,
          25.065734
        ]
      },
      "properties": {
        "name": "\u6c50\u6b62\u5927\u540c\u5e97",
        "hours": "05:00\u201303:30",
        "address": "\u65b0\u5317\u5e02\u6c50\u6b62\u5340\u5927\u540c\u8def2\u6bb5242\u865f1\u6a13",
        "number": "02-2649-7341"
      }
    },
    {
      "type": "Feature",
      "geometry": {
        "type": "Point",
        "coordinates": [
          121.6551,
          25.062621
        ]
      },
      "properties": {
        "name": "\u6c50\u6b62\u65b0\u53f0\u4e94\u65d7\u8266\u5c08\u6ac3",
        "hours": "\u661f\u671f\u56db\r\n06:00\u201300:00\r\n\u661f\u671f\u4e94~\u4e09\r\n05:00\u201303:30",
        "address": "\u65b0\u5317\u5e02\u6c50\u6b62\u5340\u65b0\u53f0\u4e94\u8def1\u6bb5162\u865f",
        "number": "02-8642-5343"
      }
    },
    {
      "type": "Feature",
      "geometry": {
        "type": "Point",
        "coordinates": [
          121.425202,
          25.040055
        ]
      },
      "properties": {
        "name": "\u6cf0\u5c71\u660e\u5fd7\u5e97",
        "hours": "05:00\u201304:00",
        "address": "\u65b0\u5317\u5e02\u6cf0\u5c71\u5340\u660e\u5fd7\u8def\u4e09\u6bb5153\u865f",
        "number": "02-903-0875"
      }
    },
    {
      "type": "Feature",
      "geometry": {
        "type": "Point",
        "coordinates": [
          121.433594,
          25.061293
        ]
      },
      "properties": {
        "name": "\u6cf0\u5c71\u6cf0\u6797\u5e97",
        "hours": "05:00\u201304:00",
        "address": "\u65b0\u5317\u5e02\u6cf0\u5c71\u5340\u6cf0\u6797\u8def2\u6bb5194\u865f1\u6a13",
        "number": "02-2296-7309"
      }
    },
    {
      "type": "Feature",
      "geometry": {
        "type": "Point",
        "coordinates": [
          121.442701,
          25.176704
        ]
      },
      "properties": {
        "name": "\u6de1\u6c34\u4e2d\u5c71\u5e97",
        "hours": "\u661f\u671f\u56db\n06:00\u201304:00\n\u661f\u671f\u4e94~\u4e09\n05:00\u201304:00",
        "address": "\u65b0\u5317\u5e02\u6de1\u6c34\u5340\u4e2d\u5c71\u5317\u8def1\u6bb5105\u865f1\u6a13",
        "number": "02-2620-9411"
      }
    },
    {
      "type": "Feature",
      "geometry": {
        "type": "Point",
        "coordinates": [
          121.446248,
          25.168374
        ]
      },
      "properties": {
        "name": "\u6de1\u6c34\u4e2d\u6b63\u5e97",
        "hours": "05:00\u201304:00",
        "address": "\u65b0\u5317\u5e02\u6de1\u6c34\u5340\u4e2d\u6b63\u6771\u8def37\u865f",
        "number": "02-2623-0207"
      }
    },
    {
      "type": "Feature",
      "geometry": {
        "type": "Point",
        "coordinates": [
          121.448064,
          25.183526
        ]
      },
      "properties": {
        "name": "\u6de1\u6c34\u65b0\u5e02\u65d7\u8266\u5c08\u6ac3",
        "hours": "\u661f\u671f\u4e09\n06:00\u201300:00\n\u661f\u671f\u56db~\u4e8c\n24 \u5c0f\u6642\u71df\u696d",
        "address": "\u65b0\u5317\u5e02\u6de1\u6c34\u5340\u65b0\u5e02\u4e00\u8def\u4e09\u6bb5151\u865f",
        "number": "02-2620-0051"
      }
    },
    {
      "type": "Feature",
      "geometry": {
        "type": "Point",
        "coordinates": [
          121.802025,
          25.106786
        ]
      },
      "properties": {
        "name": "\u745e\u82b3\u4e2d\u5c71\u5e97",
        "hours": "06:00\u201300:00",
        "address": "\u65b0\u5317\u5e02\u745e\u82b3\u5340\u4e2d\u5c71\u8def168\u865f",
        "number": "02-2406-1095"
      }
    },
    {
      "type": "Feature",
      "geometry": {
        "type": "Point",
        "coordinates": [
          121.460919,
          25.081448
        ]
      },
      "properties": {
        "name": "\u8606\u6d32\u9577\u5b89\u5e97",
        "hours": "05:00\u201304:00",
        "address": "\u65b0\u5317\u5e02\u8606\u6d32\u5340\u9577\u5b89\u8857127\u865f1\u6a13",
        "number": "02-8282-5129"
      }
    },
    {
      "type": "Feature",
      "geometry": {
        "type": "Point",
        "coordinates": [
          121.459869,
          25.087466
        ]
      },
      "properties": {
        "name": "\u8606\u6d32\u9577\u69ae\u65d7\u8266\u5c08\u6ac3",
        "hours": "05:00\u201304:00",
        "address": "\u65b0\u5317\u5e02\u8606\u6d32\u5340\u9577\u69ae\u8def376,378\u865f",
        "number": "\u7121\u96fb\u8a71"
      }
    },
    {
      "type": "Feature",
      "geometry": {
        "type": "Point",
        "coordinates": [
          121.640695,
          25.219202
        ]
      },
      "properties": {
        "name": "\u91d1\u5c71\u4e2d\u5c71\u5e97",
        "hours": "06:00\u201300:00",
        "address": "\u65b0\u5317\u5e02\u91d1\u5c71\u5340\u4e2d\u5c71\u8def88\u865f",
        "number": "02-2498-0028"
      }
    },
    {
      "type": "Feature",
      "geometry": {
        "type": "Point",
        "coordinates": [
          121.352144,
          24.95119
        ]
      },
      "properties": {
        "name": "\u9daf\u6b4c\u6587\u5316\u5e97",
        "hours": "06:00\u201323:00",
        "address": "\u65b0\u5317\u5e02\u9daf\u6b4c\u5340\u6587\u5316\u8def363\u865f1\u6a13",
        "number": "02-2677-2705"
      }
    },
    {
      "type": "Feature",
      "geometry": {
        "type": "Point",
        "coordinates": [
          121.332942,
          24.96461
        ]
      },
      "properties": {
        "name": "\u9daf\u6b4c\u9daf\u6843\u5e97",
        "hours": "06:00\u201300:00",
        "address": "\u65b0\u5317\u5e02\u9daf\u6b4c\u5340\u9daf\u6843\u8def411\u865f",
        "number": "02-2677-1270"
      }
    },
    {
      "type": "Feature",
      "geometry": {
        "type": "Point",
        "coordinates": [
          121.241161,
          24.959229
        ]
      },
      "properties": {
        "name": "\u4e2d\u58e2\u4e2d\u539f\u5e97",
        "hours": "08:00\u201321:00",
        "address": "\u6843\u5712\u5e02\u4e2d\u58e2\u5340\u4e2d\u5317\u8def200\u865f(\u4e2d\u539f\u5927\u5b78)",
        "number": "03-4562037"
      }
    },
    {
      "type": "Feature",
      "geometry": {
        "type": "Point",
        "coordinates": [
          121.244766,
          24.9481
        ]
      },
      "properties": {
        "name": "\u4e2d\u58e2\u5bb6\u6a02\u798f\u5e97",
        "hours": "09:30\u201322:00",
        "address": "\u6843\u5712\u5e02\u4e2d\u58e2\u5340\u4e2d\u5c71\u6771\u8def\u4e8c\u6bb5510\u865f1F",
        "number": "03-436-0051"
      }
    },
    {
      "type": "Feature",
      "geometry": {
        "type": "Point",
        "coordinates": [
          121.223292,
          24.954653
        ]
      },
      "properties": {
        "name": "\u4e2d\u58e2\u4e2d\u6b63\u4e8c\u5e97",
        "hours": "06:00\u201300:00",
        "address": "\u6843\u5712\u5e02\u4e2d\u58e2\u5340\u4e2d\u6b63\u8def51\u865f1\u6a13",
        "number": "03-280-5816"
      }
    },
    {
      "type": "Feature",
      "geometry": {
        "type": "Point",
        "coordinates": [
          121.23563,
          24.964415
        ]
      },
      "properties": {
        "name": "\u4e2d\u58e2\u4e2d\u83ef\u65d7\u8266\u5c08\u6ac3",
        "hours": "05:00\u201304:00",
        "address": "\u6843\u5712\u5e02\u4e2d\u58e2\u5340\u4e2d\u83ef\u8def2\u6bb5358\u865f1\u6a13",
        "number": "03-462-5866"
      }
    },
    {
      "type": "Feature",
      "geometry": {
        "type": "Point",
        "coordinates": [
          121.254117,
          24.972347
        ]
      },
      "properties": {
        "name": "\u5167\u58e2\u5bb6\u6a02\u798f\u5e97",
        "hours": "\t09:00\u201321:30",
        "address": "\u6843\u5712\u5e02\u4e2d\u58e2\u5340\u4e2d\u83ef\u8def\u4e00\u6bb5450\u865f1\u6a13",
        "number": "03-434-0519"
      }
    },
    {
      "type": "Feature",
      "geometry": {
        "type": "Point",
        "coordinates": [
          121.223646,
          24.962841
        ]
      },
      "properties": {
        "name": "\u4e2d\u58e2\u5d07\u5149\u5e97",
        "hours": "\u661f\u671f\u4e94~\u516d\r\n10:00\u201322:00\r\n\u661f\u671f\u65e5~\u56db\r\n10:00\u201321:30",
        "address": "\u6843\u5712\u5e02\u4e2d\u58e2\u5340\u5143\u5316\u8def357\u865fB1",
        "number": "03-427-0445"
      }
    },
    {
      "type": "Feature",
      "geometry": {
        "type": "Point",
        "coordinates": [
          121.225593,
          24.956998
        ]
      },
      "properties": {
        "name": "\u4e2d\u58e2\u4e2d\u592e\u5e97",
        "hours": "05:00\u201304:00",
        "address": "\u6843\u5712\u5e02\u4e2d\u58e2\u5340\u5fa9\u8208\u8def57\u865f",
        "number": "03-422-9242"
      }
    },
    {
      "type": "Feature",
      "geometry": {
        "type": "Point",
        "coordinates": [
          121.236481,
          24.949458
        ]
      },
      "properties": {
        "name": "\u4e2d\u58e2\u74b0\u4e2d\u6771\u65d7\u8266\u5c08\u6ac3",
        "hours": "05:00\u201304:00",
        "address": "\u6843\u5712\u5e02\u4e2d\u58e2\u5340\u74b0\u4e2d\u6771\u8def2\u6bb5176\u865f",
        "number": "03-436-2837"
      }
    },
    {
      "type": "Feature",
      "geometry": {
        "type": "Point",
        "coordinates": [
          121.256231,
          24.962737
        ]
      },
      "properties": {
        "name": "\u4e2d\u58e2\u74b0\u4e2d\u6771\u4e8c\u5e97",
        "hours": "05:00\u201304:00",
        "address": "\u6843\u5712\u5e02\u4e2d\u58e2\u5340\u74b0\u4e2d\u6771\u8def301,303\u865f",
        "number": "03-455-9117"
      }
    },
    {
      "type": "Feature",
      "geometry": {
        "type": "Point",
        "coordinates": [
          121.211781,
          25.011471
        ]
      },
      "properties": {
        "name": "\u6843\u5712\u9ad8\u9435\u5e97",
        "hours": "06:00\u201300:00",
        "address": "\u6843\u5712\u5e02\u4e2d\u58e2\u5340\u9ad8\u9435\u5317\u8def\u4e00\u6bb56\u865f1\u6a13",
        "number": "03-261-8108"
      }
    },
    {
      "type": "Feature",
      "geometry": {
        "type": "Point",
        "coordinates": [
          121.276619,
          24.981747
        ]
      },
      "properties": {
        "name": "\u6843\u5712\u516b\u5fb7\u65d7\u8266\u5c08\u6ac3",
        "hours": "05:00\u201304:00",
        "address": "\u6843\u5712\u5e02\u516b\u5fb7\u5340\u4e2d\u83ef\u8def277\u865f",
        "number": "03-369-8784"
      }
    },
    {
      "type": "Feature",
      "geometry": {
        "type": "Point",
        "coordinates": [
          121.297607,
          24.94899
        ]
      },
      "properties": {
        "name": "\u6843\u5712\u5927\u6e73\u65d7\u8266\u5c08\u6ac3",
        "hours": "05:00\u201304:00",
        "address": "\u6843\u5712\u5e02\u516b\u5fb7\u5340\u4ecb\u58fd\u8def2\u6bb5332\u865f1\u6a13",
        "number": "03-376-3237"
      }
    },
    {
      "type": "Feature",
      "geometry": {
        "type": "Point",
        "coordinates": [
          121.327104,
          24.97133
        ]
      },
      "properties": {
        "name": "\u516b\u5fb7\u6843\u9daf\u5e97",
        "hours": "05:00\u201304:00",
        "address": "\u6843\u5712\u5e02\u516b\u5fb7\u5340\u6843\u9daf\u8def37\u865f",
        "number": "03-377-4766"
      }
    },
    {
      "type": "Feature",
      "geometry": {
        "type": "Point",
        "coordinates": [
          121.202318,
          25.062197
        ]
      },
      "properties": {
        "name": "\u5927\u5712\u4e2d\u6b63\u5e97",
        "hours": "05:00\u201303:00",
        "address": "\u6843\u5712\u5e02\u5927\u5712\u5340\u4e2d\u6b63\u6771\u8def162\u865f1\u6a13",
        "number": "03-385-7521"
      }
    },
    {
      "type": "Feature",
      "geometry": {
        "type": "Point",
        "coordinates": [
          121.23219,
          25.076939
        ]
      },
      "properties": {
        "name": "\u6843\u5712\u6a5f\u5834\u4e00\u5e97",
        "hours": "24 \u5c0f\u6642\u71df\u696d",
        "address": "\u6843\u5712\u5e02\u5927\u5712\u5340\u822a\u7ad9\u5357\u8def9\u865fB2F",
        "number": "03-393-1598"
      }
    },
    {
      "type": "Feature",
      "geometry": {
        "type": "Point",
        "coordinates": [
          121.232276,
          25.077445
        ]
      },
      "properties": {
        "name": "\u6843\u5712\u6a5f\u5834\u4e8c\u5e97",
        "hours": "06:00\u201322:00",
        "address": "\u6843\u5712\u5e02\u5927\u5712\u5340\u822a\u7ad9\u5357\u8def9\u865f\u7b2c\u4e8c\u822a\u5ec8\u7ba1\u5236\u5340C\u53404\u6a13",
        "number": "\u7121\u96fb\u8a71"
      }
    },
    {
      "type": "Feature",
      "geometry": {
        "type": "Point",
        "coordinates": [
          121.276505,
          24.894843
        ]
      },
      "properties": {
        "name": "\u5927\u6eaa\u54e1\u6797\u65d7\u8266\u5c08\u6ac3",
        "hours": "06:00\u201300:00",
        "address": "\u6843\u5712\u5e02\u5927\u6eaa\u5340\u54e1\u6797\u8def1\u6bb5268\u865f",
        "number": "03-307-6781"
      }
    },
    {
      "type": "Feature",
      "geometry": {
        "type": "Point",
        "coordinates": [
          121.289139,
          24.881842
        ]
      },
      "properties": {
        "name": "\u5927\u6eaa\u6148\u6e56\u5e97",
        "hours": "06:00\u201323:00",
        "address": "\u6843\u5712\u5e02\u5927\u6eaa\u5340\u6148\u6e56\u8def99\u865f1\u6a13",
        "number": "03-388-7797"
      }
    },
    {
      "type": "Feature",
      "geometry": {
        "type": "Point",
        "coordinates": [
          121.211207,
          24.900771
        ]
      },
      "properties": {
        "name": "\u5e73\u93ae\u4e2d\u8c50\u5e97",
        "hours": "06:00\u201323:00",
        "address": "\u6843\u5712\u5e02\u5e73\u93ae\u5340\u4e2d\u8c50\u8def\u5c71\u9802\u6bb5156\u4e4b1\u865f1\u6a13",
        "number": "03-469-4354"
      }
    },
    {
      "type": "Feature",
      "geometry": {
        "type": "Point",
        "coordinates": [
          121.204181,
          24.957048
        ]
      },
      "properties": {
        "name": "\u4e2d\u58e2\u6c11\u65cf\u65d7\u8266\u5c08\u6ac3",
        "hours": "05:00\u201304:00",
        "address": "\u6843\u5712\u5e02\u5e73\u93ae\u5340\u6c11\u65cf\u8def2\u6bb5175\u865f",
        "number": "03-492-5410"
      }
    },
    {
      "type": "Feature",
      "geometry": {
        "type": "Point",
        "coordinates": [
          121.306259,
          24.992575
        ]
      },
      "properties": {
        "name": "\u6843\u5712\u4e09\u6c11\u5e97",
        "hours": "05:00\u201304:00",
        "address": "\u6843\u5712\u5e02\u6843\u5712\u5340\u4e09\u6c11\u8def3\u6bb5313\u865f1\u6a13",
        "number": "03-336-6411"
      }
    },
    {
      "type": "Feature",
      "geometry": {
        "type": "Point",
        "coordinates": [
          121.28614,
          24.984931
        ]
      },
      "properties": {
        "name": "\u6843\u5712\u611b\u8cb7\u5e97",
        "hours": "10:00\u201321:00",
        "address": "\u6843\u5712\u5e02\u6843\u5712\u5340\u4e2d\u5c71\u8def939\u865f",
        "number": "03-378-0366"
      }
    },
    {
      "type": "Feature",
      "geometry": {
        "type": "Point",
        "coordinates": [
          121.313775,
          24.989721
        ]
      },
      "properties": {
        "name": "\u6843\u5712\u65b0\u9060\u767e\u5e97",
        "hours": "11:00\u201322:00",
        "address": "\u6843\u5712\u5e02\u6843\u5712\u5340\u4e2d\u6b63\u8def20\u865fB1F",
        "number": "03-331-3058"
      }
    },
    {
      "type": "Feature",
      "geometry": {
        "type": "Point",
        "coordinates": [
          121.312822,
          24.991202
        ]
      },
      "properties": {
        "name": "\u6843\u5712\u4e2d\u6b63\u5e97",
        "hours": "05:00\u201304:00",
        "address": "\u6843\u5712\u5e02\u6843\u5712\u5340\u4e2d\u6b63\u8def50\u865f",
        "number": "03-333-4423"
      }
    },
    {
      "type": "Feature",
      "geometry": {
        "type": "Point",
        "coordinates": [
          121.3024,
          25.013795
        ]
      },
      "properties": {
        "name": "\u6843\u5712\u5927\u8208\u897f\u65d7\u8266\u5c08\u6ac3",
        "hours": "\u661f\u671f\u56db\n06:00\u201304:00\n\u661f\u671f\u4e94~\u4e09\n05:00\u201304:00",
        "address": "\u6843\u5712\u5e02\u6843\u5712\u5340\u5927\u8208\u897f\u8def1\u6bb5212\u865f",
        "number": "03-346-8959"
      }
    },
    {
      "type": "Feature",
      "geometry": {
        "type": "Point",
        "coordinates": [
          121.296425,
          25.009756
        ]
      },
      "properties": {
        "name": "\u6843\u5712\u5927\u8208\u897f\u4e8c\u65d7\u8266\u5c08\u6ac3\u5e97",
        "hours": "05:00\u201304:00",
        "address": "\u6843\u5712\u5e02\u6843\u5712\u5340\u5927\u8208\u897f\u8def\u4e8c\u6bb5177\u865f",
        "number": "03-215-0640"
      }
    },
    {
      "type": "Feature",
      "geometry": {
        "type": "Point",
        "coordinates": [
          121.318194,
          24.986478
        ]
      },
      "properties": {
        "name": "\u6843\u5712\u6843\u9daf\u65d7\u8266\u5c08\u6ac3",
        "hours": "05:00\u201304:00",
        "address": "\u6843\u5712\u5e02\u6843\u5712\u5340\u6843\u9daf\u8def66\u865f",
        "number": "03-362-6920"
      }
    },
    {
      "type": "Feature",
      "geometry": {
        "type": "Point",
        "coordinates": [
          121.305015,
          25.015916
        ]
      },
      "properties": {
        "name": "\u6843\u5712\u7d93\u570b\u5bb6\u6a02\u798f\u5e97",
        "hours": "10:00\u201322:00",
        "address": "\u6843\u5712\u5e02\u6843\u5712\u5340\u7d93\u570b\u8def369\u865f2\u6a13",
        "number": "03-356-5177"
      }
    },
    {
      "type": "Feature",
      "geometry": {
        "type": "Point",
        "coordinates": [
          121.303602,
          25.020779
        ]
      },
      "properties": {
        "name": "\u6843\u5712\u7d93\u570b\u65d7\u8266\u5c08\u6ac3",
        "hours": "05:00\u201304:00",
        "address": "\u6843\u5712\u5e02\u6843\u5712\u5340\u7d93\u570b\u8def495\u865f1\u6a13",
        "number": "03-356-8530"
      }
    },
    {
      "type": "Feature",
      "geometry": {
        "type": "Point",
        "coordinates": [
          121.168359,
          24.908431
        ]
      },
      "properties": {
        "name": "\u694a\u6885\u57d4\u5fc3\u65d7\u8266\u5c08\u6ac3",
        "hours": "05:00\u201304:00",
        "address": "\u6843\u5712\u5e02\u694a\u6885\u5340\u4e2d\u5c71\u5317\u8def2\u6bb545\u865f",
        "number": "03-482-0564"
      }
    },
    {
      "type": "Feature",
      "geometry": {
        "type": "Point",
        "coordinates": [
          121.154495,
          24.908456
        ]
      },
      "properties": {
        "name": "\u694a\u6885\u4e2d\u5c71\u5317\u5e97",
        "hours": "06:00\u201300:00",
        "address": "\u6843\u5712\u5e02\u694a\u6885\u5340\u4e2d\u5c71\u5317\u8def\u4e00\u6bb5218\u865f",
        "number": "03-4884895"
      }
    },
    {
      "type": "Feature",
      "geometry": {
        "type": "Point",
        "coordinates": [
          121.292254,
          25.046987
        ]
      },
      "properties": {
        "name": "\u5357\u5d01\u4e2d\u6b63\u65d7\u8266\u5c08\u6ac3",
        "hours": "05:00\u201304:00",
        "address": "\u6843\u5712\u5e02\u8606\u7af9\u5340\u5357\u69ae\u6751\u4e2d\u6b63\u8def245\u865f",
        "number": "03-352-7305"
      }
    },
    {
      "type": "Feature",
      "geometry": {
        "type": "Point",
        "coordinates": [
          121.263684,
          25.02158
        ]
      },
      "properties": {
        "name": "\u8606\u7af9\u5927\u7af9\u65d7\u8266\u5c08\u6ac3",
        "hours": "06:00\u201300:00",
        "address": "\u6843\u5712\u5e02\u8606\u7af9\u5340\u5927\u7af9\u8def432\u865f",
        "number": "03-323-9975"
      }
    },
    {
      "type": "Feature",
      "geometry": {
        "type": "Point",
        "coordinates": [
          121.212231,
          24.881028
        ]
      },
      "properties": {
        "name": "\u9f8d\u6f6d\u4e2d\u8c50\u5e97",
        "hours": "06:00\u201323:30",
        "address": "\u6843\u5712\u5e02\u9f8d\u6f6d\u5340\u4e2d\u8c50\u8def412\u865f",
        "number": "03-480-9031"
      }
    },
    {
      "type": "Feature",
      "geometry": {
        "type": "Point",
        "coordinates": [
          121.217947,
          24.86858
        ]
      },
      "properties": {
        "name": "\u6843\u5712\u9f8d\u6f6d\u65d7\u8266\u5c08\u6ac3",
        "hours": "05:00\u201304:00",
        "address": "\u6843\u5712\u5e02\u9f8d\u6f6d\u5340\u5317\u9f8d\u8def301\u865f",
        "number": "03-480-1401"
      }
    },
    {
      "type": "Feature",
      "geometry": {
        "type": "Point",
        "coordinates": [
          121.367396,
          25.058671
        ]
      },
      "properties": {
        "name": "\u6797\u53e3\u5fa9\u8208\u5e97",
        "hours": "\u661f\u671f\u56db\n06:00\u201304:00\n\u661f\u671f\u4e94~\u4e09\n05:00\u201304:00",
        "address": "\u6843\u5712\u5e02\u9f9c\u5c71\u5340\u5fa9\u8208\u4e00\u8def148\u865f",
        "number": "03-327-3883"
      }
    },
    {
      "type": "Feature",
      "geometry": {
        "type": "Point",
        "coordinates": [
          121.345883,
          24.998414
        ]
      },
      "properties": {
        "name": "\u6843\u5712\u9f9c\u5c71\u65d7\u8266\u5c08\u6ac3",
        "hours": "05:00\u201304:00",
        "address": "\u6843\u5712\u5e02\u9f9c\u5c71\u5340\u81ea\u5f37\u6771\u8def291\u865f1\u6a13",
        "number": "03-320-4895"
      }
    },
    {
      "type": "Feature",
      "geometry": {
        "type": "Point",
        "coordinates": [
          121.403099,
          25.017274
        ]
      },
      "properties": {
        "name": "\u65b0\u838a\u9f8d\u83ef\u5e97",
        "hours": "06:00\u201300:00",
        "address": "\u6843\u5712\u5e02\u9f9c\u5c71\u5340\u842c\u58fd\u8def\u4e00\u6bb5317\u865f",
        "number": "02-8200-0781"
      }
    },
    {
      "type": "Feature",
      "geometry": {
        "type": "Point",
        "coordinates": [
          121.15475,
          24.910043
        ]
      },
      "properties": {
        "name": "\u694a\u6885\u4e2d\u5c71\u5317\u65d7\u8266\u5c08\u6ac3",
        "hours": "06:00\u201300:00",
        "address": "\u6843\u5712\u5e02\u694a\u6885\u5340\u4e2d\u5c71\u5317\u8def\u4e00\u6bb5218\u865f",
        "number": "03-488-4895"
      }
    },
    {
      "type": "Feature",
      "geometry": {
        "type": "Point",
        "coordinates": [
          120.971503,
          24.803655
        ]
      },
      "properties": {
        "name": "\u65b0\u7af9\u4e2d\u6b63\u5e97",
        "hours": "06:00\u201300:00",
        "address": "\u65b0\u7af9\u5e02\u5317\u5340\u6771\u5340\u4e2d\u6b63\u8def34\u865f",
        "number": "03-522-0258"
      }
    },
    {
      "type": "Feature",
      "geometry": {
        "type": "Point",
        "coordinates": [
          121.011572,
          24.786948
        ]
      },
      "properties": {
        "name": "\u65b0\u7af9\u5149\u5fa9\u65d7\u8266\u5c08\u6ac3",
        "hours": "05:00\u201304:00",
        "address": "\u65b0\u7af9\u5e02\u5317\u5340\u6771\u5340\u5149\u5fa9\u8def1\u6bb5526\u865f",
        "number": "03-577-6333"
      }
    },
    {
      "type": "Feature",
      "geometry": {
        "type": "Point",
        "coordinates": [
          120.992142,
          24.799912
        ]
      },
      "properties": {
        "name": "\u65b0\u7af9\u5149\u5fa9\u4e8c\u5e97",
        "hours": "06:00\u201300:00",
        "address": "\u65b0\u7af9\u5e02\u5317\u5340\u6771\u5340\u5149\u5fa9\u8def2\u6bb5241\u3001243\u865f",
        "number": "03-575-1062"
      }
    },
    {
      "type": "Feature",
      "geometry": {
        "type": "Point",
        "coordinates": [
          120.993506,
          24.793061
        ]
      },
      "properties": {
        "name": "\u65b0\u7af9\u6e05\u5927\u5e97",
        "hours": "07:00\u201300:00",
        "address": "\u65b0\u7af9\u5e02\u5317\u5340\u6771\u5340\u5149\u5fa9\u8def\u4e8c\u6bb5101\u865f(\u6e05\u83ef\u5927\u5b78\u5c0f\u5403\u90e8)",
        "number": "03-572-7800"
      }
    },
    {
      "type": "Feature",
      "geometry": {
        "type": "Point",
        "coordinates": [
          120.969799,
          24.797755
        ]
      },
      "properties": {
        "name": "\u65b0\u7af9\u5357\u5927\u5e97",
        "hours": "05:00\u201304:00",
        "address": "\u65b0\u7af9\u5e02\u5317\u5340\u6771\u5340\u5357\u5927\u8def337\u865f1\u6a13",
        "number": "03-561-0742"
      }
    },
    {
      "type": "Feature",
      "geometry": {
        "type": "Point",
        "coordinates": [
          120.954692,
          24.79997
        ]
      },
      "properties": {
        "name": "\u65b0\u7af9\u7d93\u570b\u65d7\u8266\u5c08\u6ac3",
        "hours": "05:00\u201304:00",
        "address": "\u65b0\u7af9\u5e02\u5317\u5340\u6771\u5340\u570b\u8def1\u6bb5522\u865f1\u6a13",
        "number": "03-535-6469"
      }
    },
    {
      "type": "Feature",
      "geometry": {
        "type": "Point",
        "coordinates": [
          120.999099,
          24.785054
        ]
      },
      "properties": {
        "name": "\u65b0\u7af9\u4ea4\u5927\u5e97",
        "hours": "07:00\u201322:00",
        "address": "\u65b0\u7af9\u5e02\u5317\u5340\u6771\u5340\u5927\u5b78\u8def1001\u865f\u4e4b\u570b\u7acb\u4ea4\u901a\u5927\u5b78\u5973\u4e8c\u820d",
        "number": "03-573-4333"
      }
    },
    {
      "type": "Feature",
      "geometry": {
        "type": "Point",
        "coordinates": [
          121.01902,
          24.784968
        ]
      },
      "properties": {
        "name": "\u65b0\u7af9\u95dc\u65b0\u5e97",
        "hours": "06:00\u201300:00",
        "address": "\u65b0\u7af9\u5e02\u5317\u5340\u6771\u5340\u95dc\u65b0\u8def26\u865f",
        "number": "03-666-2713"
      }
    },
    {
      "type": "Feature",
      "geometry": {
        "type": "Point",
        "coordinates": [
          120.972718,
          24.795219
        ]
      },
      "properties": {
        "name": "\u65b0\u7af9\u98df\u54c1\u5e97",
        "hours": "05:00\u201304:00",
        "address": "\u65b0\u7af9\u5e02\u5317\u5340\u6771\u5340\u98df\u54c1\u8def228\u865f",
        "number": "03-5626201"
      }
    },
    {
      "type": "Feature",
      "geometry": {
        "type": "Point",
        "coordinates": [
          120.970841,
          24.818527
        ]
      },
      "properties": {
        "name": "\u65b0\u7af9\u5927\u6f64\u767c\u5e97",
        "hours": "06:00\u201300:00",
        "address": "\u65b0\u7af9\u5e02\u5317\u5340\u6e73\u96c5\u885791\u865f1\u6a13",
        "number": "03-532-9648"
      }
    },
    {
      "type": "Feature",
      "geometry": {
        "type": "Point",
        "coordinates": [
          120.962393,
          24.806131
        ]
      },
      "properties": {
        "name": "\u65b0\u7af9\u897f\u5927\u5e97",
        "hours": "05:00\u201304:00",
        "address": "\u65b0\u7af9\u5e02\u5317\u5340\u897f\u5927\u8def513\u865f1\u6a13",
        "number": "03-523-4840"
      }
    },
    {
      "type": "Feature",
      "geometry": {
        "type": "Point",
        "coordinates": [
          120.95393,
          24.79998
        ]
      },
      "properties": {
        "name": "\u65b0\u7af9\u7d93\u570b\u4e8c\u5e97",
        "hours": "05:00\u201304:00",
        "address": "\u65b0\u7af9\u5e02\u5317\u5340\u9999\u5c71\u5340\u7d93\u570b\u8def\u4e09\u6bb511\u865f",
        "number": "03-539-9826"
      }
    },
    {
      "type": "Feature",
      "geometry": {
        "type": "Point",
        "coordinates": [
          120.994948,
          24.869174
        ]
      },
      "properties": {
        "name": "\u65b0\u8c50\u65b0\u8208\u5e97",
        "hours": "05:00\u201304:00",
        "address": "\u65b0\u7af9\u7e23\u65b0\u8c50\u9109\u65b0\u8208\u8def189\u4e4b3\u865f1F",
        "number": "03-557-6112"
      }
    },
    {
      "type": "Feature",
      "geometry": {
        "type": "Point",
        "coordinates": [
          121.005888,
          24.8366
        ]
      },
      "properties": {
        "name": "\u7af9\u5317\u4e2d\u83ef\u5e97",
        "hours": "05:00\u201304:00",
        "address": "\u65b0\u7af9\u7e23\u7af9\u5317\u5e02\u4e09\u6c11\u8def559\u865f1\u6a13",
        "number": "03-555-3611"
      }
    },
    {
      "type": "Feature",
      "geometry": {
        "type": "Point",
        "coordinates": [
          121.009562,
          24.827024
        ]
      },
      "properties": {
        "name": "\u7af9\u5317\u5149\u660e\u5e97",
        "hours": "06:00\u201300:00",
        "address": "\u65b0\u7af9\u7e23\u7af9\u5317\u5e02\u5149\u660e\u516d\u8def89\u865f1\u6a13",
        "number": "03-553-5849"
      }
    },
    {
      "type": "Feature",
      "geometry": {
        "type": "Point",
        "coordinates": [
          121.031053,
          24.808881
        ]
      },
      "properties": {
        "name": "\u7af9\u5317\u6587\u8208\u5e97",
        "hours": "06:00\u201300:00",
        "address": "\u65b0\u7af9\u7e23\u7af9\u5317\u5e02\u6587\u8208\u8def\u4e00\u6bb5350\u865f",
        "number": "03-668-5501"
      }
    },
    {
      "type": "Feature",
      "geometry": {
        "type": "Point",
        "coordinates": [
          121.027914,
          24.8191
        ]
      },
      "properties": {
        "name": "\u7af9\u5317\u81ea\u5f37\u5357\u5e97",
        "hours": "05:00\u201303:00",
        "address": "\u65b0\u7af9\u7e23\u7af9\u5317\u5e02\u81ea\u5f37\u5357\u8def19\u865f",
        "number": "03-657-8195"
      }
    },
    {
      "type": "Feature",
      "geometry": {
        "type": "Point",
        "coordinates": [
          121.08331,
          24.743886
        ]
      },
      "properties": {
        "name": "\u7af9\u6771\u9577\u6625\u5e97",
        "hours": "06:00\u201301:00",
        "address": "\u65b0\u7af9\u7e23\u7af9\u6771\u93ae\u9577\u6625\u8def3\u6bb5191\u865f",
        "number": "03-596-2780"
      }
    },
    {
      "type": "Feature",
      "geometry": {
        "type": "Point",
        "coordinates": [
          121.192576,
          24.801367
        ]
      },
      "properties": {
        "name": "\u95dc\u897f\u670d\u52d9\u5340\u5e97",
        "hours": "06:30\u201322:00",
        "address": "\u65b0\u7af9\u7e23\u95dc\u897f\u93ae\u4e0a\u4e09\u5c6f14\u865f(\u570b\u9053\u4e09\u865f\u9ad8\u901f\u516c\u8def\u95dc\u897f\u670d\u52d9\u5340\u5546\u5834\u4e00\u6a13)",
        "number": "\u7121\u96fb\u8a71"
      }
    },
    {
      "type": "Feature",
      "geometry": {
        "type": "Point",
        "coordinates": [
          120.759406,
          24.389652
        ]
      },
      "properties": {
        "name": "\u82d7\u6817\u4e09\u7fa9\u5e97",
        "hours": "\u661f\u671f\u4e94~\u65e5\n06:00\u201300:00\n\u661f\u671f\u4e00~\u56db\n06:00\u201323:30",
        "address": "\u82d7\u6817\u7e23\u4e09\u7fa9\u9109\u897f\u6e56\u6751\u4e0b\u6e565-15\u865f1\u6a13",
        "number": "03-7873-430"
      }
    },
    {
      "type": "Feature",
      "geometry": {
        "type": "Point",
        "coordinates": [
          120.878362,
          24.68593
        ]
      },
      "properties": {
        "name": "\u7af9\u5357\u6c11\u6b0a\u5e97",
        "hours": "05:00\u201303:30",
        "address": "\u82d7\u6817\u7e23\u7af9\u5357\u93ae\u6c11\u6b0a\u885749\u865f",
        "number": "03-7478-791"
      }
    },
    {
      "type": "Feature",
      "geometry": {
        "type": "Point",
        "coordinates": [
          120.646105,
          24.432924
        ]
      },
      "properties": {
        "name": "\u82d1\u88e1\u4ecb\u58fd\u5e97",
        "hours": "06:00\u201323:30",
        "address": "\u82d7\u6817\u7e23\u82d1\u88e1\u93ae\u623f\u88e1\u91cc\u5357\u623f63\u4e4b10\u865f1\u6a13",
        "number": "03-7854-198"
      }
    },
    {
      "type": "Feature",
      "geometry": {
        "type": "Point",
        "coordinates": [
          120.819415,
          24.557775
        ]
      },
      "properties": {
        "name": "\u82d7\u6817\u4e2d\u5c71\u5e97",
        "hours": "06:00\u201300:00",
        "address": "\u82d7\u6817\u7e23\u82d7\u6817\u5e02\u4e2d\u5c71\u8def600\u865f1\u6a13",
        "number": "03-7359-099"
      }
    },
    {
      "type": "Feature",
      "geometry": {
        "type": "Point",
        "coordinates": [
          120.816393,
          24.552466
        ]
      },
      "properties": {
        "name": "\u82d7\u6817\u5149\u5fa9\u5e97",
        "hours": "05:00\u201303:00",
        "address": "\u82d7\u6817\u7e23\u82d7\u6817\u5e02\u5149\u5fa9\u8def11\u865f",
        "number": "03-732-9096"
      }
    },
    {
      "type": "Feature",
      "geometry": {
        "type": "Point",
        "coordinates": [
          120.817703,
          24.573644
        ]
      },
      "properties": {
        "name": "\u82d7\u6817\u5bb6\u6a02\u798f\u4e2d\u5fc3\u5e97",
        "hours": "07:00\u201322:00",
        "address": "\u82d7\u6817\u7e23\u82d7\u6817\u5e02\u570b\u83ef\u8def599\u865f1\u6a13",
        "number": "03-7378-778"
      }
    },
    {
      "type": "Feature",
      "geometry": {
        "type": "Point",
        "coordinates": [
          120.915001,
          24.693803
        ]
      },
      "properties": {
        "name": "\u82d7\u6817\u982d\u4efd\u5e97",
        "hours": "05:00\u201303:00",
        "address": "\u82d7\u6817\u7e23\u982d\u4efd\u5e02\u4e2d\u83ef\u8def1335\u865f1\u6a13",
        "number": "03-7685-299"
      }
    },
    {
      "type": "Feature",
      "geometry": {
        "type": "Point",
        "coordinates": [
          120.903462,
          24.686905
        ]
      },
      "properties": {
        "name": "\u982d\u4efd\u5927\u6f64\u767c\u5e97",
        "hours": "09:00\u201322:00",
        "address": "\u82d7\u6817\u7e23\u982d\u4efd\u5e02\u81ea\u5f37\u8def230\u865f1\u6a13",
        "number": "03-7681-709"
      }
    },
    {
      "type": "Feature",
      "geometry": {
        "type": "Point",
        "coordinates": [
          120.684847,
          24.152403
        ]
      },
      "properties": {
        "name": "\u53f0\u4e2d\u4e2d\u53cb\u5e97",
        "hours": "11:00\u201321:30",
        "address": "\u53f0\u4e2d\u5e02\u5317\u5340\u4e09\u6c11\u8def3\u6bb5161\u865fA\u68dfB3",
        "number": "04-2225-9169"
      }
    },
    {
      "type": "Feature",
      "geometry": {
        "type": "Point",
        "coordinates": [
          120.672468,
          24.170934
        ]
      },
      "properties": {
        "name": "\u53f0\u4e2d\u65b0\u5927\u96c5\u65d7\u8266\u5c08\u6ac3",
        "hours": "04:30\u201303:00",
        "address": "\u53f0\u4e2d\u5e02\u5317\u5340\u4e2d\u6e05\u8def\u4e00\u6bb5786\u865f",
        "number": "04-2293-9110"
      }
    },
    {
      "type": "Feature",
      "geometry": {
        "type": "Point",
        "coordinates": [
          120.683598,
          24.148307
        ]
      },
      "properties": {
        "name": "\u53f0\u4e2d\u4e09\u6c11\u5e97",
        "hours": "04:00\u201303:00",
        "address": "\u53f0\u4e2d\u5e02\u5317\u5340\u592a\u5e73\u8def22\u865f",
        "number": "04-2223-8845"
      }
    },
    {
      "type": "Feature",
      "geometry": {
        "type": "Point",
        "coordinates": [
          120.681528,
          24.155282
        ]
      },
      "properties": {
        "name": "\u53f0\u4e2d\u5b78\u58eb\u5e97",
        "hours": "05:00\u201304:00",
        "address": "\u53f0\u4e2d\u5e02\u5317\u5340\u5b78\u58eb\u8def83\u865f",
        "number": "04-2201-6826"
      }
    },
    {
      "type": "Feature",
      "geometry": {
        "type": "Point",
        "coordinates": [
          120.684804,
          24.163817
        ]
      },
      "properties": {
        "name": "\u53f0\u4e2d\u5d07\u5fb7\u65d7\u8266\u5c08\u6ac3",
        "hours": "04:00\u201302:30",
        "address": "\u53f0\u4e2d\u5e02\u5317\u5340\u5d07\u5fb7\u8def1\u6bb5298\u865f",
        "number": "04-2237-5575"
      }
    },
    {
      "type": "Feature",
      "geometry": {
        "type": "Point",
        "coordinates": [
          120.666651,
          24.156855
        ]
      },
      "properties": {
        "name": "\u53f0\u4e2d\u9928\u524d\u5e97",
        "hours": "\u661f\u671f\u4e00\r\n\u4f11\u606f\r\n\u661f\u671f\u4e8c~\u65e5\r\n09:00\u201317:00",
        "address": "\u53f0\u4e2d\u5e02\u5317\u5340\u9928\u524d\u8def1\u865f2\u6a13",
        "number": "04-2322-7795"
      }
    },
    {
      "type": "Feature",
      "geometry": {
        "type": "Point",
        "coordinates": [
          120.663331,
          24.187982
        ]
      },
      "properties": {
        "name": "\u53f0\u4e2d\u4e2d\u6e05\u65d7\u8266\u5c08\u6ac3",
        "hours": "05:00\u201304:00",
        "address": "\u53f0\u4e2d\u5e02\u5317\u5c6f\u5340\u4e2d\u6e05\u8def\u4e8c\u6bb5896\u865f",
        "number": "04-2425-5690"
      }
    },
    {
      "type": "Feature",
      "geometry": {
        "type": "Point",
        "coordinates": [
          120.701361,
          24.179499
        ]
      },
      "properties": {
        "name": "\u53f0\u4e2d\u5317\u5c6f\u65d7\u8266\u5c08\u6ac3",
        "hours": "04:00\u201303:00",
        "address": "\u53f0\u4e2d\u5e02\u5317\u5c6f\u5340\u5317\u5c6f\u8def432\u4e4b1\u865f",
        "number": "04-2249-1960"
      }
    },
    {
      "type": "Feature",
      "geometry": {
        "type": "Point",
        "coordinates": [
          120.685996,
          24.187625
        ]
      },
      "properties": {
        "name": "\u53f0\u4e2d\u5d07\u5fb7\u4e8c\u65d7\u8266\u5c08\u6ac3",
        "hours": "05:00\u201303:30",
        "address": "\u53f0\u4e2d\u5e02\u5317\u5c6f\u5340\u5d07\u5fb7\u8def3\u6bb5191\u865f1\u6a13",
        "number": "04-2422-6045"
      }
    },
    {
      "type": "Feature",
      "geometry": {
        "type": "Point",
        "coordinates": [
          120.681345,
          24.173057
        ]
      },
      "properties": {
        "name": "\u53f0\u4e2d\u6587\u5fc3\u4e94\u65d7\u8266\u5c08\u6ac3",
        "hours": "04:00\u201303:00",
        "address": "\u53f0\u4e2d\u5e02\u5317\u5c6f\u5340\u6587\u5fc3\u8def4\u6bb5341\u865f",
        "number": "04-2246-6945"
      }
    },
    {
      "type": "Feature",
      "geometry": {
        "type": "Point",
        "coordinates": [
          120.719488,
          24.17521
        ]
      },
      "properties": {
        "name": "\u53f0\u4e2d\u8ecd\u529f\u65d7\u8266\u5c08\u6ac3",
        "hours": "05:00\u201303:30",
        "address": "\u53f0\u4e2d\u5e02\u5317\u5c6f\u5340\u8ecd\u529f\u8def1\u6bb5611\u865f",
        "number": "04-2436-3747"
      }
    },
    {
      "type": "Feature",
      "geometry": {
        "type": "Point",
        "coordinates": [
          120.658613,
          24.117375
        ]
      },
      "properties": {
        "name": "\u53f0\u4e2d\u5fa9\u8208\u4e8c\u5e97",
        "hours": "04:00\u201303:00",
        "address": "\u53f0\u4e2d\u5e02\u5357\u5340\u5fa9\u8208\u8def2\u6bb56-1\u865f1\u6a13",
        "number": "04-2261-0232"
      }
    },
    {
      "type": "Feature",
      "geometry": {
        "type": "Point",
        "coordinates": [
          120.671382,
          24.129229
        ]
      },
      "properties": {
        "name": "\u53f0\u4e2d\u5fa9\u8208\u4e09\u65d7\u8266\u5c08\u6ac3",
        "hours": "\u661f\u671f\u56db\n06:00\u201303:30\n\u661f\u671f\u4e94~\u4e09\n05:00\u201303:30",
        "address": "\u53f0\u4e2d\u5e02\u5357\u5340\u5fa9\u8208\u8def3\u6bb541\u865f",
        "number": "04-2261-2036"
      }
    },
    {
      "type": "Feature",
      "geometry": {
        "type": "Point",
        "coordinates": [
          120.649157,
          24.140725
        ]
      },
      "properties": {
        "name": "\u53f0\u4e2d\u4e94\u6b0a\u897f\u65d7\u8266\u5c08\u6ac3",
        "hours": "06:00\u201322:00",
        "address": "\u53f0\u4e2d\u5e02\u5357\u5c6f\u5340\u4e94\u6b0a\u897f\u8def2\u6bb5250\u865f1\u6a13",
        "number": "04-2473-0388"
      }
    },
    {
      "type": "Feature",
      "geometry": {
        "type": "Point",
        "coordinates": [
          120.632712,
          24.145588
        ]
      },
      "properties": {
        "name": "\u53f0\u4e2d\u4e94\u6b0a\u897f\u4e8c\u65d7\u8266\u5c08\u6ac3",
        "hours": "05:00\u201303:30",
        "address": "\u53f0\u4e2d\u5e02\u5357\u5c6f\u5340\u4e94\u6b0a\u897f\u8def2\u6bb5961\u865f",
        "number": "04-2389-0432"
      }
    },
    {
      "type": "Feature",
      "geometry": {
        "type": "Point",
        "coordinates": [
          120.645562,
          24.136401
        ]
      },
      "properties": {
        "name": "\u53f0\u4e2d\u6587\u5fc3\u5357\u65d7\u8266\u5c08\u6ac3",
        "hours": "04:00\u201303:00",
        "address": "\u53f0\u4e2d\u5e02\u5357\u5c6f\u5340\u6587\u5fc3\u5357\u8def61\u865f",
        "number": "04-2473-1093"
      }
    },
    {
      "type": "Feature",
      "geometry": {
        "type": "Point",
        "coordinates": [
          120.635478,
          24.150845
        ]
      },
      "properties": {
        "name": "\u53f0\u4e2d\u9ece\u660e\u4e8c\u5e97",
        "hours": "06:00\u201300:00",
        "address": "\u53f0\u4e2d\u5e02\u5357\u5c6f\u5340\u9ece\u660e\u8def\u4e8c\u6bb5386\u865f",
        "number": "04-2251-0298"
      }
    },
    {
      "type": "Feature",
      "geometry": {
        "type": "Point",
        "coordinates": [
          120.646996,
          24.222254
        ]
      },
      "properties": {
        "name": "\u5927\u96c5\u4e2d\u6e05\u5357\u5e97",
        "hours": "05:00\u201304:00",
        "address": "\u53f0\u4e2d\u5e02\u53f0\u4e2d\u5e02\u5927\u96c5\u5340\u4e2d\u6e05\u8def3\u6bb51095\u865f",
        "number": "04-2560-3891"
      }
    },
    {
      "type": "Feature",
      "geometry": {
        "type": "Point",
        "coordinates": [
          120.664155,
          24.155316
        ]
      },
      "properties": {
        "name": "\u4e2d\u6e2f\u56db\u5e97",
        "hours": "05:00\u201304:00",
        "address": "\u53f0\u4e2d\u5e02\u53f0\u4e2d\u5e02\u897f\u5340\u53f0\u7063\u5927\u9053\u4e8c\u6bb5412\u865fB1",
        "number": "04-2323-4079"
      }
    },
    {
      "type": "Feature",
      "geometry": {
        "type": "Point",
        "coordinates": [
          120.615976,
          24.183595
        ]
      },
      "properties": {
        "name": "\u53f0\u4e2d\u4e2d\u6e2f\u516d\u5e97",
        "hours": "04:00\u201303:00",
        "address": "\u53f0\u4e2d\u5e02\u53f0\u4e2d\u5e02\u897f\u5c6f\u5340\u53f0\u7063\u5927\u9053\u56db\u6bb51058\u865f",
        "number": "04-2460-8339"
      }
    },
    {
      "type": "Feature",
      "geometry": {
        "type": "Point",
        "coordinates": [
          120.711788,
          24.330448
        ]
      },
      "properties": {
        "name": "\u6cf0\u5b89\u670d\u52d9\u5340\u5e97",
        "hours": "07:00\u201322:00",
        "address": "\u53f0\u4e2d\u5e02\u540e\u91cc\u5340\u5b89\u7709\u8def113\u865f\u6cf0\u5b89\u670d\u52d9\u5340\u5357\u7ad9\u6cf0\u5b89\u5546\u58342\u6a13",
        "number": "\u7121\u96fb\u8a71"
      }
    },
    {
      "type": "Feature",
      "geometry": {
        "type": "Point",
        "coordinates": [
          120.617858,
          24.350701
        ]
      },
      "properties": {
        "name": "\u5927\u7532\u7d93\u570b\u65d7\u8266\u5c08\u6ac3",
        "hours": "05:00\u201303:00",
        "address": "\u53f0\u4e2d\u5e02\u5927\u7532\u5340\u7d93\u570b\u8def502\u865f1\u6a13",
        "number": "04-2680-0681"
      }
    },
    {
      "type": "Feature",
      "geometry": {
        "type": "Point",
        "coordinates": [
          120.694708,
          24.089526
        ]
      },
      "properties": {
        "name": "\u5927\u91cc\u4e2d\u8208\u65d7\u8266\u5c08\u6ac3",
        "hours": "04:30\u201303:00",
        "address": "\u53f0\u4e2d\u5e02\u5927\u91cc\u5340\u4e2d\u8208\u8def1\u6bb5175\u865f1\u6a13",
        "number": "04-2493-3162"
      }
    },
    {
      "type": "Feature",
      "geometry": {
        "type": "Point",
        "coordinates": [
          120.681617,
          24.10366
        ]
      },
      "properties": {
        "name": "\u5927\u91cc\u570b\u5149\u65d7\u8266\u5c08\u6ac3",
        "hours": "04:30\u201303:00",
        "address": "\u53f0\u4e2d\u5e02\u5927\u91cc\u5340\u570b\u5149\u8def2\u6bb5177\u865f1\u6a13",
        "number": "04-2406-2052"
      }
    },
    {
      "type": "Feature",
      "geometry": {
        "type": "Point",
        "coordinates": [
          120.680097,
          24.115564
        ]
      },
      "properties": {
        "name": "\u5927\u91cc\u5927\u8cb7\u5bb6\u5e97",
        "hours": "09:00\u201322:00",
        "address": "\u53f0\u4e2d\u5e02\u5927\u91cc\u5340\u570b\u5149\u8def2\u6bb5710\u865f2\u6a13",
        "number": "04-2481-9606"
      }
    },
    {
      "type": "Feature",
      "geometry": {
        "type": "Point",
        "coordinates": [
          120.719218,
          24.14889
        ]
      },
      "properties": {
        "name": "\u592a\u5e73\u4e2d\u5c71\u5e97",
        "hours": "05:00\u201304:00",
        "address": "\u53f0\u4e2d\u5e02\u592a\u5e73\u5340\u4e2d\u5c71\u8def\u4e09\u6bb545\u865f",
        "number": "04-2275-0391"
      }
    },
    {
      "type": "Feature",
      "geometry": {
        "type": "Point",
        "coordinates": [
          120.717392,
          24.128229
        ]
      },
      "properties": {
        "name": "\u592a\u5e73\u4e2d\u8208\u5e97",
        "hours": "06:00\u201300:00",
        "address": "\u53f0\u4e2d\u5e02\u592a\u5e73\u5340\u4e2d\u8208\u8def43\u865f1\u6a13",
        "number": "04-2270-6250"
      }
    },
    {
      "type": "Feature",
      "geometry": {
        "type": "Point",
        "coordinates": [
          120.824782,
          24.2581
        ]
      },
      "properties": {
        "name": "\u6771\u52e2\u4e2d\u6b63\u65d7\u8266\u5c08\u6ac3",
        "hours": "06:00\u201300:00",
        "address": "\u53f0\u4e2d\u5e02\u6771\u52e2\u5340\u4e2d\u6b63\u8def350\u865f1\u6a13",
        "number": "04-2577-2512"
      }
    },
    {
      "type": "Feature",
      "geometry": {
        "type": "Point",
        "coordinates": [
          120.687649,
          24.136037
        ]
      },
      "properties": {
        "name": "\u53f0\u4e2d\u65b0\u6642\u4ee31F B1\u5e97",
        "hours": "07:00\u201300:00",
        "address": "\u53f0\u4e2d\u5e02\u6771\u5340\u5fa9\u8208\u8def4\u6bb5186\u865f1\u6a13B1",
        "number": "04-2226-0839"
      }
    },
    {
      "type": "Feature",
      "geometry": {
        "type": "Point",
        "coordinates": [
          120.709712,
          24.149721
        ]
      },
      "properties": {
        "name": "\u53f0\u4e2d\u7cbe\u6b66\u6771\u65d7\u8266\u5c08\u6ac3",
        "hours": "04:00\u201303:00",
        "address": "\u53f0\u4e2d\u5e02\u6771\u5340\u7cbe\u6b66\u6771\u8def109\u865f",
        "number": "04-2215-2208"
      }
    },
    {
      "type": "Feature",
      "geometry": {
        "type": "Point",
        "coordinates": [
          120.565896,
          24.242695
        ]
      },
      "properties": {
        "name": "\u6c99\u9e7f\u5149\u83ef\u5e97",
        "hours": "06:00\u201323:00",
        "address": "\u53f0\u4e2d\u5e02\u6c99\u9e7f\u5340\u5149\u83ef\u8def338\u865fB1",
        "number": "04-2663-1055"
      }
    },
    {
      "type": "Feature",
      "geometry": {
        "type": "Point",
        "coordinates": [
          120.558786,
          24.235126
        ]
      },
      "properties": {
        "name": "\u6c99\u9e7f\u6c99\u7530\u5e97",
        "hours": "05:00\u201303:30",
        "address": "\u53f0\u4e2d\u5e02\u6c99\u9e7f\u5340\u6c99\u7530\u8def107\u865f1\u6a13",
        "number": "04-2662-9502"
      }
    },
    {
      "type": "Feature",
      "geometry": {
        "type": "Point",
        "coordinates": [
          120.569587,
          24.274341
        ]
      },
      "properties": {
        "name": "\u6e05\u6c34\u4e2d\u83ef\u65d7\u8266\u5c08\u6ac3",
        "hours": "05:00\u201303:00",
        "address": "\u53f0\u4e2d\u5e02\u6e05\u6c34\u5340\u4e2d\u83ef\u8def459\u865f",
        "number": "04-2626-3190"
      }
    },
    {
      "type": "Feature",
      "geometry": {
        "type": "Point",
        "coordinates": [
          120.705196,
          24.212231
        ]
      },
      "properties": {
        "name": "\u6f6d\u5b50\u4e2d\u5c71\u5e97",
        "hours": "05:00\u201304:00",
        "address": "\u53f0\u4e2d\u5e02\u6f6d\u5b50\u5340\u4e2d\u5c71\u8def2\u6bb5343\u865f1\u6a13",
        "number": "04-2531-8737"
      }
    },
    {
      "type": "Feature",
      "geometry": {
        "type": "Point",
        "coordinates": [
          120.63865,
          24.108678
        ]
      },
      "properties": {
        "name": "\u53f0\u4e2d\u70cf\u65e5\u5e97",
        "hours": "05:00\u201303:30",
        "address": "\u53f0\u4e2d\u5e02\u70cf\u65e5\u5340\u4e2d\u5c71\u8def1\u6bb5346\u865f1\u6a13",
        "number": "04-2336-5126"
      }
    },
    {
      "type": "Feature",
      "geometry": {
        "type": "Point",
        "coordinates": [
          120.624598,
          24.104299
        ]
      },
      "properties": {
        "name": "\u70cf\u65e5\u65b0\u8208\u65d7\u8266\u5c08\u6ac3\u5e97",
        "hours": "06:00\u201300:00",
        "address": "\u53f0\u4e2d\u5e02\u70cf\u65e5\u5340\u65b0\u8208\u8def253\u865f",
        "number": "\u7121\u96fb\u8a71"
      }
    },
    {
      "type": "Feature",
      "geometry": {
        "type": "Point",
        "coordinates": [
          120.616085,
          24.112632
        ]
      },
      "properties": {
        "name": "\u53f0\u4e2d\u9ad8\u9435\u5e97",
        "hours": "06:00\u201323:00",
        "address": "\u53f0\u4e2d\u5e02\u70cf\u65e5\u5340\u7ad9\u5340\u4e8c\u8def8\u865f2\u6a13",
        "number": "04-3600-3332"
      }
    },
    {
      "type": "Feature",
      "geometry": {
        "type": "Point",
        "coordinates": [
          120.68626,
          24.246739
        ]
      },
      "properties": {
        "name": "\u795e\u5ca1\u4e2d\u5c71\u5e97",
        "hours": "06:00\u201300:00",
        "address": "\u53f0\u4e2d\u5e02\u795e\u5ca1\u5340\u4e2d\u5c71\u8def501\u865f",
        "number": "04-2561-3113"
      }
    },
    {
      "type": "Feature",
      "geometry": {
        "type": "Point",
        "coordinates": [
          120.64357,
          24.171081
        ]
      },